ZIP,CENSUS_REGION,STATE_NAME,CITY_NAME,STATE,LAT,LONG,COUNTY
00501,Northeast,New York,HOLTSVILLE,NY,40.8152,73.0455,SUFFOLK
00544,Northeast,New York,HOLTSVILLE,NY,40.8152,73.0455,SUFFOLK
00601,Territory,Puerto Rico,ADJUNTAS,PR,18.1788,66.7516,ADJUNTAS
00602,Territory,Puerto Rico,AGUADA,PR,18.381389,67.188611,AGUADA
00603,Territory,Puerto Rico,AGUADILLA,PR,18.4554,67.1308,AGUADILLA
00604,Territory,Puerto Rico,AGUADILLA,PR,18.4812,67.1467,AGUADILLA
00605,Territory,Puerto Rico,AGUADILLA,PR,18.429444,67.154444,AGUADILLA
00606,Territory,Puerto Rico,MARICAO,PR,18.182778,66.980278,MARICAO
00610,Territory,Puerto Rico,ANASCO,PR,18.284722,67.14,ANASCO
00611,Territory,Puerto Rico,ANGELES,PR,18.286944,66.799722,UTUADO
00612,Territory,Puerto Rico,ARECIBO,PR,18.4389,66.6924,ARECIBO
00613,Territory,Puerto Rico,ARECIBO,PR,18.1399,66.6344,ARECIBO
00614,Territory,Puerto Rico,ARECIBO,PR,18.1399,66.6344,ARECIBO
00616,Territory,Puerto Rico,BAJADERO,PR,18.428611,66.683611,ARECIBO
00617,Territory,Puerto Rico,BARCELONETA,PR,18.4525,66.538889,BARCELONETA
00622,Territory,Puerto Rico,BOQUERON,PR,18.028889,67.169444,CABO ROJO
00623,Territory,Puerto Rico,CABO ROJO,PR,18.083611,67.148889,CABO ROJO
00624,Territory,Puerto Rico,PENUELAS,PR,18.058333,66.721944,PENUELAS
00627,Territory,Puerto Rico,CAMUY,PR,18.485833,66.845278,CAMUY
00631,Territory,Puerto Rico,CASTANER,PR,18.2165,66.8681,LARES
00636,Territory,Puerto Rico,ROSARIO,PR,18.163333,67.081667,SAN GERMAN
00637,Territory,Puerto Rico,SABANA GRANDE,PR,18.079722,66.960833,SABANA GRANDE
00638,Territory,Puerto Rico,CIALES,PR,18.338056,66.469167,CIALES
00641,Territory,Puerto Rico,UTUADO,PR,18.2675,66.700833,UTUADO
00646,Territory,Puerto Rico,DORADO,PR,18.464444,66.270278,DORADO
00647,Territory,Puerto Rico,ENSENADA,PR,17.968333,66.933333,GUANICA
00650,Territory,Puerto Rico,FLORIDA,PR,18.364444,66.561667,FLORIDA
00652,Territory,Puerto Rico,GARROCHALES,PR,18.459722,66.611389,ARECIBO
00653,Territory,Puerto Rico,GUANICA,PR,17.973611,66.908333,GUANICA
00656,Territory,Puerto Rico,GUAYANILLA,PR,18.02,66.79,GUAYANILLA
00659,Territory,Puerto Rico,HATILLO,PR,18.488333,66.825833,HATILLO
00660,Territory,Puerto Rico,HORMIGUEROS,PR,18.14,67.128333,HORMIGUEROS
00662,Territory,Puerto Rico,ISABELA,PR,18.496667,67.026389,ISABELA
00664,Territory,Puerto Rico,JAYUYA,PR,18.220556,66.591944,JAYUYA
00667,Territory,Puerto Rico,LAJAS,PR,18.05,67.061667,LAJAS
00669,Territory,Puerto Rico,LARES,PR,18.296667,66.8775,LARES
00670,Territory,Puerto Rico,LAS MARIAS,PR,18.295278,67.146667,LAS MARIAS
00674,Territory,Puerto Rico,MANATI,PR,18.425833,66.471667,MANATI
00676,Territory,Puerto Rico,MOCA,PR,18.395,67.163333,MOCA
00677,Territory,Puerto Rico,RINCON,PR,18.34,67.25,RINCON
00678,Territory,Puerto Rico,QUEBRADILLAS,PR,18.475833,66.938889,QUEBRADILLAS
00680,Territory,Puerto Rico,MAYAGUEZ,PR,18.2011,67.1172,MAYAGUEZ
00681,Territory,Puerto Rico,MAYAGUEZ,PR,18.2038,67.1445,MAYAGUEZ
00682,Territory,Puerto Rico,MAYAGUEZ,PR,18.2149,67.1518,MAYAGUEZ
00683,Territory,Puerto Rico,SAN GERMAN,PR,18.083611,67.045278,SAN GERMAN
00685,Territory,Puerto Rico,SAN SEBASTIAN,PR,18.338611,66.990556,SAN SEBASTIAN
00687,Territory,Puerto Rico,MOROVIS,PR,18.327778,66.406944,MOROVIS
00688,Territory,Puerto Rico,SABANA HOYOS,PR,18.435833,66.614167,ARECIBO
00690,Territory,Puerto Rico,SAN ANTONIO,PR,18.4475,66.298056,AGUADILLA
00692,Territory,Puerto Rico,VEGA ALTA,PR,18.414167,66.331667,VEGA ALTA
00693,Territory,Puerto Rico,VEGA BAJA,PR,18.4385,66.3983,VEGA BAJA
00694,Territory,Puerto Rico,VEGA BAJA,PR,18.4533,66.4069,VEGA BAJA
00698,Territory,Puerto Rico,YAUCO,PR,18.036944,66.850278,YAUCO
00703,Territory,Puerto Rico,AGUAS BUENAS,PR,18.258333,66.105,AGUAS BUENAS
00704,Territory,Puerto Rico,AGUIRRE,PR,18.25,66.103056,SALINAS
00705,Territory,Puerto Rico,AIBONITO,PR,18.141667,66.265,AIBONITO
00707,Territory,Puerto Rico,MAUNABO,PR,18.009167,65.899722,MAUNABO
00714,Territory,Puerto Rico,ARROYO,PR,17.963333,66.063333,ARROYO
00715,Territory,Puerto Rico,MERCEDITA,PR,18.0052,66.5602,PONCE
00716,Territory,Puerto Rico,PONCE,PR,18.015556,66.58,PONCE
00717,Territory,Puerto Rico,PONCE,PR,18.0035,66.6119,PONCE
00718,Territory,Puerto Rico,NAGUABO,PR,18.213333,65.736667,NAGUABO
00719,Territory,Puerto Rico,NARANJITO,PR,18.301667,66.246667,NARANJITO
00720,Territory,Puerto Rico,OROCOVIS,PR,18.228889,66.391389,OROCOVIS
00721,Territory,Puerto Rico,PALMER,PR,18.3725,65.774444,RIO GRANDE
00723,Territory,Puerto Rico,PATILLAS,PR,18.008333,66.013333,PATILLAS
00725,Territory,Puerto Rico,CAGUAS,PR,18.2297,66.0458,CAGUAS
00726,Territory,Puerto Rico,CAGUAS,PR,18.2381,66.0372,CAGUAS
00727,Territory,Puerto Rico,CAGUAS,PR,18.2194,66.0525,CAGUAS
00728,Territory,Puerto Rico,PONCE,PR,18.0085,66.6505,PONCE
00729,Territory,Puerto Rico,CANOVANAS,PR,18.379722,65.906667,CANOVANAS
00730,Territory,Puerto Rico,PONCE,PR,18.284167,67.1425,PONCE
00731,Territory,Puerto Rico,PONCE,PR,18.0952,66.6285,PONCE
00732,Territory,Puerto Rico,PONCE,PR,18.005,66.6121,PONCE
00733,Territory,Puerto Rico,PONCE,PR,18.005,66.6121,PONCE
00734,Territory,Puerto Rico,PONCE,PR,18.005,66.6121,PONCE
00735,Territory,Puerto Rico,CEIBA,PR,18.2531,65.656,CEIBA
00736,Territory,Puerto Rico,CAYEY,PR,18.1134,66.1521,CAYEY
00737,Territory,Puerto Rico,CAYEY,PR,18.115,66.1669,CAYEY
00738,Territory,Puerto Rico,FAJARDO,PR,18.330278,65.657222,FAJARDO
00739,Territory,Puerto Rico,CIDRA,PR,18.176667,66.161667,CIDRA
00740,Territory,Puerto Rico,PUERTO REAL,PR,18.079167,67.185556,FAJARDO
00741,Territory,Puerto Rico,PUNTA SANTIAGO,PR,18.168333,65.748611,HUMACAO
00742,Territory,Puerto Rico,ROOSEVELT ROADS,PR,18.2674,65.6483,CEIBA
00744,Territory,Puerto Rico,RIO BLANCO,PR,18.220278,65.788889,NAGUABO
00745,Territory,Puerto Rico,RIO GRANDE,PR,18.379444,65.838889,RIO GRANDE
00751,Territory,Puerto Rico,SALINAS,PR,17.979444,66.298333,SALINAS
00754,Territory,Puerto Rico,SAN LORENZO,PR,18.191389,65.961389,SAN LORENZO
00757,Territory,Puerto Rico,SANTA ISABEL,PR,17.968056,66.405278,SANTA ISABEL
00765,Territory,Puerto Rico,VIEQUES,PR,18.426389,65.835556,VIEQUES
00766,Territory,Puerto Rico,VILLALBA,PR,18.129167,66.4925,VILLALBA
00767,Territory,Puerto Rico,YABUCOA,PR,18.0525,65.879722,YABUCOA
00769,Territory,Puerto Rico,COAMO,PR,18.081944,66.358333,COAMO
00771,Territory,Puerto Rico,LAS PIEDRAS,PR,18.183333,65.863333,LAS PIEDRAS
00772,Territory,Puerto Rico,LOIZA,PR,18.433333,65.880556,LOIZA
00773,Territory,Puerto Rico,LUQUILLO,PR,18.374444,65.716944,LUQUILLO
00775,Territory,Puerto Rico,CULEBRA,PR,18.305,65.301389,CULEBRA
00777,Territory,Puerto Rico,JUNCOS,PR,18.229444,65.921389,JUNCOS
00778,Territory,Puerto Rico,GURABO,PR,18.255,65.9775,GURABO
00780,Territory,Puerto Rico,COTO LAUREL,PR,18.0545,66.5625,PONCE
00782,Territory,Puerto Rico,COMERIO,PR,18.218333,66.225,COMERIO
00783,Territory,Puerto Rico,COROZAL,PR,18.343056,66.317222,COROZAL
00784,Territory,Puerto Rico,GUAYAMA,PR,17.9856,66.1307,GUAYAMA
00785,Territory,Puerto Rico,GUAYAMA,PR,18.0291,66.792,GUAYAMA
00786,Territory,Puerto Rico,LA PLATA,PR,18.156389,66.233333,AIBONITO
00791,Territory,Puerto Rico,HUMACAO,PR,18.1415,65.8216,HUMACAO
00792,Territory,Puerto Rico,HUMACAO,PR,18.1522,65.8221,HUMACAO
00794,Territory,Puerto Rico,BARRANQUITAS,PR,18.188333,66.308333,BARRANQUITAS
00795,Territory,Puerto Rico,JUANA DIAZ,PR,18.054444,66.506944,JUANA DIAZ
00901,Territory,Puerto Rico,SAN JUAN,PR,18.4652,66.1071,SAN JUAN
00902,Territory,Puerto Rico,SAN JUAN,PR,18.4661,66.1143,SAN JUAN
00906,Territory,Puerto Rico,SAN JUAN,PR,18.4661,66.1143,SAN JUAN
00907,Territory,Puerto Rico,SAN JUAN,PR,18.454167,66.084167,SAN JUAN
00908,Territory,Puerto Rico,SAN JUAN,PR,18.4495,66.0765,SAN JUAN
00909,Territory,Puerto Rico,SAN JUAN,PR,18.4418,66.0672,SAN JUAN
00910,Territory,Puerto Rico,SAN JUAN,PR,18.4459,66.0698,SAN JUAN
00911,Territory,Puerto Rico,SAN JUAN,PR,18.4505,66.0573,SAN JUAN
00912,Territory,Puerto Rico,SAN JUAN,PR,18.4463,66.0601,SAN JUAN
00913,Territory,Puerto Rico,SAN JUAN,PR,18.4499,66.0432,SAN JUAN
00914,Territory,Puerto Rico,SAN JUAN,PR,18.453,66.0557,SAN JUAN
00915,Territory,Puerto Rico,SAN JUAN,PR,18.4373,66.0476,SAN JUAN
00916,Territory,Puerto Rico,SAN JUAN,PR,18.4403,66.0531,SAN JUAN
00917,Territory,Puerto Rico,SAN JUAN,PR,18.4225,66.0502,SAN JUAN
00918,Territory,Puerto Rico,SAN JUAN,PR,18.419,66.0643,SAN JUAN
00919,Territory,Puerto Rico,SAN JUAN,PR,18.4238,66.059,SAN JUAN
00920,Territory,Puerto Rico,SAN JUAN,PR,18.4142,66.0908,SAN JUAN
00921,Territory,Puerto Rico,SAN JUAN,PR,18.3928,66.0885,SAN JUAN
00922,Territory,Puerto Rico,SAN JUAN,PR,18.4046,66.1579,SAN JUAN
00923,Territory,Puerto Rico,SAN JUAN,PR,18.4109,66.0365,SAN JUAN
00924,Territory,Puerto Rico,SAN JUAN,PR,18.3978,66.0111,SAN JUAN
00925,Territory,Puerto Rico,SAN JUAN,PR,18.4019,66.0498,SAN JUAN
00926,Territory,Puerto Rico,SAN JUAN,PR,18.3579,66.06,SAN JUAN
00927,Territory,Puerto Rico,SAN JUAN,PR,18.3907,66.0704,SAN JUAN
00928,Territory,Puerto Rico,SAN JUAN,PR,18.3995,66.0492,SAN JUAN
00929,Territory,Puerto Rico,SAN JUAN,PR,18.4521,66.0536,SAN JUAN
00930,Territory,Puerto Rico,SAN JUAN,PR,18.453,66.0557,SAN JUAN
00931,Territory,Puerto Rico,SAN JUAN,PR,18.3995,66.0492,SAN JUAN
00933,Territory,Puerto Rico,SAN JUAN,PR,18.4683,66.1061,SAN JUAN
00934,Territory,Puerto Rico,FORT BUCHANAN,PR,18.46,66.11,SAN JUAN
00935,Territory,Puerto Rico,SAN JUAN,PR,18.453,66.0557,SAN JUAN
00936,Territory,Puerto Rico,SAN JUAN,PR,18.4119,66.1208,SAN JUAN
00937,Territory,Puerto Rico,SAN JUAN,PR,18.4571,66.0882,SAN JUAN
00939,Territory,Puerto Rico,SAN JUAN,PR,18.453,66.0557,SAN JUAN
00940,Territory,Puerto Rico,SAN JUAN,PR,18.4459,66.0698,SAN JUAN
00949,Territory,Puerto Rico,TOA BAJA,PR,18.451944,66.181944,TOA BAJA
00950,Territory,Puerto Rico,TOA BAJA,PR,18.4426,66.1659,TOA BAJA
00951,Territory,Puerto Rico,TOA BAJA,PR,18.4536,66.1749,TOA BAJA
00952,Territory,Puerto Rico,SABANA SECA,PR,18.428889,66.185,TOA BAJA
00953,Territory,Puerto Rico,TOA ALTA,PR,18.3664,66.2333,TOA ALTA
00954,Territory,Puerto Rico,TOA ALTA,PR,18.3911,66.252,TOA ALTA
00955,Territory,Puerto Rico,SAN JUAN,PR,18.453,66.0557,SAN JUAN
00956,Territory,Puerto Rico,BAYAMON,PR,18.3406,66.1663,BAYAMON
00957,Territory,Puerto Rico,BAYAMON,PR,18.3704,66.1878,BAYAMON
00958,Territory,Puerto Rico,BAYAMON,PR,18.379,66.1761,BAYAMON
00959,Territory,Puerto Rico,BAYAMON,PR,18.3917,66.1586,BAYAMON
00960,Territory,Puerto Rico,BAYAMON,PR,18.3935,66.1605,BAYAMON
00961,Territory,Puerto Rico,BAYAMON,PR,18.4102,66.1641,BAYAMON
00962,Territory,Puerto Rico,CATANO,PR,18.4375,66.141,CATANO
00963,Territory,Puerto Rico,CATANO,PR,18.4426,66.1207,CATANO
00965,Territory,Puerto Rico,GUAYNABO,PR,18.4326,66.1173,GUAYNABO
00966,Territory,Puerto Rico,GUAYNABO,PR,18.3968,66.1153,GUAYNABO
00968,Territory,Puerto Rico,GUAYNABO,PR,18.4122,66.1037,GUAYNABO
00969,Territory,Puerto Rico,GUAYNABO,PR,18.3452,66.1101,GUAYNABO
00970,Territory,Puerto Rico,GUAYNABO,PR,18.4336,66.1164,GUAYNABO
00971,Territory,Puerto Rico,GUAYNABO,PR,18.3556,66.1077,GUAYNABO
00975,Territory,Puerto Rico,SAN JUAN,PR,18.4683,66.1064,SAN JUAN
00976,Territory,Puerto Rico,TRUJILLO ALTO,PR,18.344,66.0053,TRUJILLO ALTO
00977,Territory,Puerto Rico,TRUJILLO ALTO,PR,18.3404,65.9897,TRUJILLO ALTO
00978,Territory,Puerto Rico,SAINT JUST,PR,18.37,66.012222,TRUJILLO ALTO
00979,Territory,Puerto Rico,CAROLINA,PR,18.4353,66.0143,CAROLINA
00981,Territory,Puerto Rico,CAROLINA,PR,18.402,65.9782,CAROLINA
00982,Territory,Puerto Rico,CAROLINA,PR,18.409,65.9907,CAROLINA
00983,Territory,Puerto Rico,CAROLINA,PR,18.4132,65.9759,CAROLINA
00984,Territory,Puerto Rico,CAROLINA,PR,18.402,65.9782,CAROLINA
00985,Territory,Puerto Rico,CAROLINA,PR,18.3969,65.9555,CAROLINA
00986,Territory,Puerto Rico,CAROLINA,PR,18.402,65.9782,CAROLINA
00987,Territory,Puerto Rico,CAROLINA,PR,18.349,65.9477,CAROLINA
00988,Territory,Puerto Rico,CAROLINA,PR,18.402,65.9782,CAROLINA
01001,Northeast,Massachusetts,AGAWAM,MA,42.070206,72.622739,HAMPDEN
01002,Northeast,Massachusetts,AMHERST,MA,42.377017,72.51565,HAMPSHIRE
01003,Northeast,Massachusetts,AMHERST,MA,42.3892,72.5256,HAMPSHIRE
01004,Northeast,Massachusetts,AMHERST,MA,42.3698,72.5338,HAMPSHIRE
01005,Northeast,Massachusetts,BARRE,MA,42.409698,72.108354,WORCESTER
01007,Northeast,Massachusetts,BELCHERTOWN,MA,42.275103,72.410953,HAMPSHIRE
01008,Northeast,Massachusetts,BLANDFORD,MA,42.182949,72.936114,HAMPDEN
01009,Northeast,Massachusetts,BONDSVILLE,MA,42.2125,72.345833,HAMPDEN
01010,Northeast,Massachusetts,BRIMFIELD,MA,42.116543,72.188455,HAMPDEN
01011,Northeast,Massachusetts,CHESTER,MA,42.279421,72.988761,HAMPDEN
01012,Northeast,Massachusetts,CHESTERFIELD,MA,42.38167,72.833309,HAMPSHIRE
01013,Northeast,Massachusetts,CHICOPEE,MA,42.162046,72.607962,HAMPDEN
01014,Northeast,Massachusetts,CHICOPEE,MA,42.1457,72.6085,HAMPDEN
01020,Northeast,Massachusetts,CHICOPEE,MA,42.176443,72.576142,HAMPDEN
01021,Northeast,Massachusetts,CHICOPEE,MA,42.158,72.5859,HAMPDEN
01022,Northeast,Massachusetts,CHICOPEE,MA,42.196672,72.558657,HAMPDEN
01026,Northeast,Massachusetts,CUMMINGTON,MA,42.435296,72.905767,HAMPSHIRE
01027,Northeast,Massachusetts,EASTHAMPTON,MA,42.264319,72.679921,HAMPSHIRE
01028,Northeast,Massachusetts,EAST LONGMEADOW,MA,42.067203,72.505565,HAMPDEN
01029,Northeast,Massachusetts,EAST OTIS,MA,42.173333,73.035,BERKSHIRE
01030,Northeast,Massachusetts,FEEDING HILLS,MA,42.07182,72.675077,HAMPDEN
01031,Northeast,Massachusetts,GILBERTVILLE,MA,42.332194,72.198585,WORCESTER
01032,Northeast,Massachusetts,GOSHEN,MA,42.466234,72.844092,HAMPSHIRE
01033,Northeast,Massachusetts,GRANBY,MA,42.255704,72.520001,HAMPSHIRE
01034,Northeast,Massachusetts,GRANVILLE,MA,42.070234,72.908793,HAMPDEN
01035,Northeast,Massachusetts,HADLEY,MA,42.36062,72.571499,HAMPSHIRE
01036,Northeast,Massachusetts,HAMPDEN,MA,42.064756,72.431823,HAMPDEN
01037,Northeast,Massachusetts,HARDWICK,MA,42.35,72.2,WORCESTER
01038,Northeast,Massachusetts,HATFIELD,MA,42.38439,72.616735,HAMPSHIRE
01039,Northeast,Massachusetts,HAYDENVILLE,MA,42.381799,72.703178,HAMPSHIRE
01040,Northeast,Massachusetts,HOLYOKE,MA,42.202007,72.626193,HAMPDEN
01041,Northeast,Massachusetts,HOLYOKE,MA,42.204167,72.616667,HAMPDEN
01050,Northeast,Massachusetts,HUNTINGTON,MA,42.265301,72.873341,HAMPSHIRE
01053,Northeast,Massachusetts,LEEDS,MA,42.354292,72.703403,HAMPSHIRE
01054,Northeast,Massachusetts,LEVERETT,MA,42.46823,72.499334,FRANKLIN
01056,Northeast,Massachusetts,LUDLOW,MA,42.172823,72.471012,HAMPDEN
01057,Northeast,Massachusetts,MONSON,MA,42.101017,72.319634,HAMPDEN
01059,Northeast,Massachusetts,NORTH AMHERST,MA,42.4102,72.5313,HAMPSHIRE
01060,Northeast,Massachusetts,NORTHAMPTON,MA,42.324662,72.654245,HAMPSHIRE
01061,Northeast,Massachusetts,NORTHAMPTON,MA,42.3209,72.6278,HAMPSHIRE
01062,Northeast,Massachusetts,NORTHAMPTON,MA,42.3231,72.6808,HAMPSHIRE
01063,Northeast,Massachusetts,NORTHAMPTON,MA,42.318,72.6354,HAMPSHIRE
01066,Northeast,Massachusetts,NORTH HATFIELD,MA,42.411111,72.622778,HAMPSHIRE
01068,Northeast,Massachusetts,OAKHAM,MA,42.348033,72.051265,WORCESTER
01069,Northeast,Massachusetts,PALMER,MA,42.176233,72.328785,HAMPDEN
01070,Northeast,Massachusetts,PLAINFIELD,MA,42.514393,72.918289,HAMPSHIRE
01071,Northeast,Massachusetts,RUSSELL,MA,42.147063,72.840343,HAMPDEN
01072,Northeast,Massachusetts,SHUTESBURY,MA,42.481968,72.421342,FRANKLIN
01073,Northeast,Massachusetts,SOUTHAMPTON,MA,42.224697,72.719381,HAMPSHIRE
01074,Northeast,Massachusetts,SOUTH BARRE,MA,42.385278,72.095833,WORCESTER
01075,Northeast,Massachusetts,SOUTH HADLEY,MA,42.237537,72.581137,HAMPSHIRE
01077,Northeast,Massachusetts,SOUTHWICK,MA,42.051099,72.770588,HAMPDEN
01079,Northeast,Massachusetts,THORNDIKE,MA,42.1875,72.336111,HAMPDEN
01080,Northeast,Massachusetts,THREE RIVERS,MA,42.181894,72.362352,HAMPDEN
01081,Northeast,Massachusetts,WALES,MA,42.062734,72.204592,HAMPDEN
01082,Northeast,Massachusetts,WARE,MA,42.261831,72.258285,HAMPSHIRE
01083,Northeast,Massachusetts,WARREN,MA,42.2125,72.191667,WORCESTER
01084,Northeast,Massachusetts,WEST CHESTERFIELD,MA,42.402778,72.876389,HAMPSHIRE
01085,Northeast,Massachusetts,WESTFIELD,MA,42.129484,72.754318,HAMPDEN
01086,Northeast,Massachusetts,WESTFIELD,MA,42.125,72.75,HAMPDEN
01088,Northeast,Massachusetts,WEST HATFIELD,MA,42.370833,72.6375,HAMPSHIRE
01089,Northeast,Massachusetts,WEST SPRINGFIELD,MA,42.115066,72.641109,HAMPDEN
01090,Northeast,Massachusetts,WEST SPRINGFIELD,MA,42.106944,72.620833,HAMPDEN
01092,Northeast,Massachusetts,WEST WARREN,MA,42.20734,72.203639,WORCESTER
01093,Northeast,Massachusetts,WHATELY,MA,42.439722,72.635278,FRANKLIN
01094,Northeast,Massachusetts,WHEELWRIGHT,MA,42.351944,72.140278,WORCESTER
01095,Northeast,Massachusetts,WILBRAHAM,MA,42.124506,72.446415,HAMPDEN
01096,Northeast,Massachusetts,WILLIAMSBURG,MA,42.408522,72.777989,HAMPSHIRE
01097,Northeast,Massachusetts,WORONOCO,MA,42.163889,72.83,HAMPDEN
01098,Northeast,Massachusetts,WORTHINGTON,MA,42.384293,72.931427,HAMPSHIRE
01101,Northeast,Massachusetts,SPRINGFIELD,MA,42.106,72.5977,HAMPDEN
01102,Northeast,Massachusetts,SPRINGFIELD,MA,42.106,72.5977,HAMPDEN
01103,Northeast,Massachusetts,SPRINGFIELD,MA,42.1029,72.588735,HAMPDEN
01104,Northeast,Massachusetts,SPRINGFIELD,MA,42.128848,72.577769,HAMPDEN
01105,Northeast,Massachusetts,SPRINGFIELD,MA,42.099931,72.578312,HAMPDEN
01106,Northeast,Massachusetts,LONGMEADOW,MA,42.050658,72.5676,HAMPDEN
01107,Northeast,Massachusetts,SPRINGFIELD,MA,42.117907,72.606544,HAMPDEN
01108,Northeast,Massachusetts,SPRINGFIELD,MA,42.085314,72.558432,HAMPDEN
01109,Northeast,Massachusetts,SPRINGFIELD,MA,42.114455,72.554349,HAMPDEN
01111,Northeast,Massachusetts,SPRINGFIELD,MA,42.106,72.5977,HAMPDEN
01115,Northeast,Massachusetts,SPRINGFIELD,MA,42.106,72.5977,HAMPDEN
01116,Northeast,Massachusetts,LONGMEADOW,MA,42.05,72.583333,HAMPDEN
01118,Northeast,Massachusetts,SPRINGFIELD,MA,42.092937,72.527445,HAMPDEN
01119,Northeast,Massachusetts,SPRINGFIELD,MA,42.12473,72.51211,HAMPDEN
01128,Northeast,Massachusetts,SPRINGFIELD,MA,42.094397,72.488903,HAMPDEN
01129,Northeast,Massachusetts,SPRINGFIELD,MA,42.122263,72.487622,HAMPDEN
01133,Northeast,Massachusetts,SPRINGFIELD,MA,42.106,72.5977,HAMPDEN
01138,Northeast,Massachusetts,SPRINGFIELD,MA,42.106,72.5977,HAMPDEN
01139,Northeast,Massachusetts,SPRINGFIELD,MA,42.106,72.5977,HAMPDEN
01144,Northeast,Massachusetts,SPRINGFIELD,MA,42.106,72.5977,HAMPDEN
01151,Northeast,Massachusetts,SPRINGFIELD,MA,42.153225,72.505048,HAMPDEN
01152,Northeast,Massachusetts,SPRINGFIELD,MA,42.106,72.5977,HAMPDEN
01195,Northeast,Massachusetts,SPRINGFIELD,MA,42.1015,72.5898,HAMPDEN
01199,Northeast,Massachusetts,SPRINGFIELD,MA,42.106,72.5977,HAMPDEN
01201,Northeast,Massachusetts,PITTSFIELD,MA,42.453086,73.247088,BERKSHIRE
01202,Northeast,Massachusetts,PITTSFIELD,MA,42.4492,73.2499,BERKSHIRE
01203,Northeast,Massachusetts,PITTSFIELD,MA,42.4492,73.2499,BERKSHIRE
01220,Northeast,Massachusetts,ADAMS,MA,42.622319,73.117225,BERKSHIRE
01222,Northeast,Massachusetts,ASHLEY FALLS,MA,42.059552,73.320195,BERKSHIRE
01223,Northeast,Massachusetts,BECKET,MA,42.359363,73.120325,BERKSHIRE
01224,Northeast,Massachusetts,BERKSHIRE,MA,42.5125,73.193333,BERKSHIRE
01225,Northeast,Massachusetts,CHESHIRE,MA,42.561059,73.157964,BERKSHIRE
01226,Northeast,Massachusetts,DALTON,MA,42.475046,73.160259,BERKSHIRE
01227,Northeast,Massachusetts,DALTON,MA,42.473611,73.166667,BERKSHIRE
01229,Northeast,Massachusetts,GLENDALE,MA,42.283333,73.344444,BERKSHIRE
01230,Northeast,Massachusetts,GREAT BARRINGTON,MA,42.195922,73.36065,BERKSHIRE
01235,Northeast,Massachusetts,HINSDALE,MA,42.434604,73.092433,BERKSHIRE
01236,Northeast,Massachusetts,HOUSATONIC,MA,42.265296,73.374544,BERKSHIRE
01237,Northeast,Massachusetts,LANESBORO,MA,42.541961,73.248737,BERKSHIRE
01238,Northeast,Massachusetts,LEE,MA,42.298994,73.231696,BERKSHIRE
01240,Northeast,Massachusetts,LENOX,MA,42.364241,73.271322,BERKSHIRE
01242,Northeast,Massachusetts,LENOX DALE,MA,42.336111,73.245833,BERKSHIRE
01243,Northeast,Massachusetts,MIDDLEFIELD,MA,42.34795,73.006226,HAMPSHIRE
01244,Northeast,Massachusetts,MILL RIVER,MA,42.113889,73.268056,BERKSHIRE
01245,Northeast,Massachusetts,MONTEREY,MA,42.187847,73.213452,BERKSHIRE
01247,Northeast,Massachusetts,NORTH ADAMS,MA,42.69865,73.10999,BERKSHIRE
01252,Northeast,Massachusetts,NORTH EGREMONT,MA,42.196667,73.438333,BERKSHIRE
01253,Northeast,Massachusetts,OTIS,MA,42.18988,73.082093,BERKSHIRE
01254,Northeast,Massachusetts,RICHMOND,MA,42.378398,73.364457,BERKSHIRE
01255,Northeast,Massachusetts,SANDISFIELD,MA,42.109429,73.116285,BERKSHIRE
01256,Northeast,Massachusetts,SAVOY,MA,42.576964,73.023281,BERKSHIRE
01257,Northeast,Massachusetts,SHEFFIELD,MA,42.100102,73.361091,BERKSHIRE
01258,Northeast,Massachusetts,SOUTH EGREMONT,MA,42.101153,73.456575,BERKSHIRE
01259,Northeast,Massachusetts,SOUTHFIELD,MA,42.078014,73.260933,BERKSHIRE
01260,Northeast,Massachusetts,SOUTH LEE,MA,42.277778,73.277778,BERKSHIRE
01262,Northeast,Massachusetts,STOCKBRIDGE,MA,42.30104,73.322263,BERKSHIRE
01263,Northeast,Massachusetts,STOCKBRIDGE,MA,42.2875,73.320833,BERKSHIRE
01264,Northeast,Massachusetts,TYRINGHAM,MA,42.245833,73.204167,BERKSHIRE
01266,Northeast,Massachusetts,WEST STOCKBRIDGE,MA,42.334752,73.38251,BERKSHIRE
01267,Northeast,Massachusetts,WILLIAMSTOWN,MA,42.708883,73.20364,BERKSHIRE
01270,Northeast,Massachusetts,WINDSOR,MA,42.509494,73.04661,BERKSHIRE
01301,Northeast,Massachusetts,GREENFIELD,MA,42.601222,72.601847,FRANKLIN
01302,Northeast,Massachusetts,GREENFIELD,MA,42.5875,72.6,FRANKLIN
01330,Northeast,Massachusetts,ASHFIELD,MA,42.523207,72.810998,FRANKLIN
01331,Northeast,Massachusetts,ATHOL,MA,42.592065,72.214644,WORCESTER
01337,Northeast,Massachusetts,BERNARDSTON,MA,42.683784,72.563439,FRANKLIN
01338,Northeast,Massachusetts,BUCKLAND,MA,42.615174,72.764124,FRANKLIN
01339,Northeast,Massachusetts,CHARLEMONT,MA,42.621802,72.880162,FRANKLIN
01340,Northeast,Massachusetts,COLRAIN,MA,42.67905,72.726508,FRANKLIN
01341,Northeast,Massachusetts,CONWAY,MA,42.513832,72.702473,FRANKLIN
01342,Northeast,Massachusetts,DEERFIELD,MA,42.540636,72.607234,FRANKLIN
01343,Northeast,Massachusetts,DRURY,MA,42.652222,72.998056,BERKSHIRE
01344,Northeast,Massachusetts,ERVING,MA,42.604957,72.416638,FRANKLIN
01346,Northeast,Massachusetts,HEATH,MA,42.685347,72.839101,FRANKLIN
01347,Northeast,Massachusetts,LAKE PLEASANT,MA,42.556389,72.518611,FRANKLIN
01349,Northeast,Massachusetts,MILLERS FALLS,MA,42.576206,72.494626,FRANKLIN
01350,Northeast,Massachusetts,MONROE BRIDGE,MA,42.723885,72.960156,FRANKLIN
01351,Northeast,Massachusetts,MONTAGUE,MA,42.542864,72.532837,FRANKLIN
01354,Northeast,Massachusetts,GILL,MA,42.676944,72.447222,FRANKLIN
01355,Northeast,Massachusetts,NEW SALEM,MA,42.514643,72.306241,FRANKLIN
01360,Northeast,Massachusetts,NORTHFIELD,MA,42.688705,72.450995,FRANKLIN
01364,Northeast,Massachusetts,ORANGE,MA,42.591231,72.305867,FRANKLIN
01366,Northeast,Massachusetts,PETERSHAM,MA,42.489761,72.189349,WORCESTER
01367,Northeast,Massachusetts,ROWE,MA,42.695289,72.925776,FRANKLIN
01368,Northeast,Massachusetts,ROYALSTON,MA,42.5925,72.227778,WORCESTER
01370,Northeast,Massachusetts,SHELBURNE FALLS,MA,42.602203,72.739059,FRANKLIN
01373,Northeast,Massachusetts,SOUTH DEERFIELD,MA,42.475616,72.615268,FRANKLIN
01375,Northeast,Massachusetts,SUNDERLAND,MA,42.453947,72.567569,FRANKLIN
01376,Northeast,Massachusetts,TURNERS FALLS,MA,42.606521,72.54701,FRANKLIN
01378,Northeast,Massachusetts,WARWICK,MA,42.681944,72.339444,FRANKLIN
01379,Northeast,Massachusetts,WENDELL,MA,42.565644,72.400851,FRANKLIN
01380,Northeast,Massachusetts,WENDELL DEPOT,MA,42.595833,72.360278,FRANKLIN
01420,Northeast,Massachusetts,FITCHBURG,MA,42.579563,71.803133,WORCESTER
01430,Northeast,Massachusetts,ASHBURNHAM,MA,42.649614,71.92666,WORCESTER
01431,Northeast,Massachusetts,ASHBY,MA,42.674462,71.817369,MIDDLESEX
01432,Northeast,Massachusetts,AYER,MA,42.55914,71.578763,MIDDLESEX
01434,Northeast,Massachusetts,DEVENS,MA,42.546667,71.598333,MIDDLESEX
01436,Northeast,Massachusetts,BALDWINVILLE,MA,42.593568,72.064647,WORCESTER
01438,Northeast,Massachusetts,EAST TEMPLETON,MA,42.563056,72.0375,WORCESTER
01440,Northeast,Massachusetts,GARDNER,MA,42.57405,71.9898,WORCESTER
01441,Northeast,Massachusetts,WESTMINSTER,MA,42.545833,71.911111,WORCESTER
01450,Northeast,Massachusetts,GROTON,MA,42.612351,71.558371,MIDDLESEX
01451,Northeast,Massachusetts,HARVARD,MA,42.498565,71.575293,WORCESTER
01452,Northeast,Massachusetts,HUBBARDSTON,MA,42.486538,72.001159,WORCESTER
01453,Northeast,Massachusetts,LEOMINSTER,MA,42.52744,71.756308,WORCESTER
01460,Northeast,Massachusetts,LITTLETON,MA,42.540132,71.487667,MIDDLESEX
01462,Northeast,Massachusetts,LUNENBURG,MA,42.58843,71.726642,WORCESTER
01463,Northeast,Massachusetts,PEPPERELL,MA,42.668888,71.593392,MIDDLESEX
01464,Northeast,Massachusetts,SHIRLEY,MA,42.558653,71.646444,MIDDLESEX
01467,Northeast,Massachusetts,STILL RIVER,MA,42.491667,71.618056,WORCESTER
01468,Northeast,Massachusetts,TEMPLETON,MA,42.545976,72.064971,WORCESTER
01469,Northeast,Massachusetts,TOWNSEND,MA,42.652511,71.689646,MIDDLESEX
01470,Northeast,Massachusetts,GROTON,MA,42.6079,71.5715,MIDDLESEX
01471,Northeast,Massachusetts,GROTON,MA,42.6079,71.5715,MIDDLESEX
01472,Northeast,Massachusetts,WEST GROTON,MA,42.604167,71.627778,MIDDLESEX
01473,Northeast,Massachusetts,WESTMINSTER,MA,42.548319,71.909599,WORCESTER
01474,Northeast,Massachusetts,WEST TOWNSEND,MA,42.670404,71.74057,MIDDLESEX
01475,Northeast,Massachusetts,WINCHENDON,MA,42.678943,72.047524,WORCESTER
01477,Northeast,Massachusetts,WINCHENDON SPRINGS,MA,42.694444,72.015278,WORCESTER
01501,Northeast,Massachusetts,AUBURN,MA,42.205502,71.839144,WORCESTER
01503,Northeast,Massachusetts,BERLIN,MA,42.384438,71.635634,WORCESTER
01504,Northeast,Massachusetts,BLACKSTONE,MA,42.028708,71.52691,WORCESTER
01505,Northeast,Massachusetts,BOYLSTON,MA,42.337727,71.731042,WORCESTER
01506,Northeast,Massachusetts,BROOKFIELD,MA,42.199141,72.098887,WORCESTER
01507,Northeast,Massachusetts,CHARLTON,MA,42.137902,71.966384,WORCESTER
01508,Northeast,Massachusetts,CHARLTON CITY,MA,42.145833,71.988889,WORCESTER
01509,Northeast,Massachusetts,CHARLTON DEPOT,MA,42.173056,71.979167,WORCESTER
01510,Northeast,Massachusetts,CLINTON,MA,42.418147,71.682847,WORCESTER
01515,Northeast,Massachusetts,EAST BROOKFIELD,MA,42.219308,72.048078,WORCESTER
01516,Northeast,Massachusetts,DOUGLAS,MA,42.060566,71.726611,WORCESTER
01517,Northeast,Massachusetts,EAST PRINCETON,MA,42.472778,71.839444,WORCESTER
01518,Northeast,Massachusetts,FISKDALE,MA,42.122762,72.117764,WORCESTER
01519,Northeast,Massachusetts,GRAFTON,MA,42.200371,71.686848,WORCESTER
01520,Northeast,Massachusetts,HOLDEN,MA,42.341983,71.84142,WORCESTER
01521,Northeast,Massachusetts,HOLLAND,MA,42.040264,72.154373,HAMPDEN
01522,Northeast,Massachusetts,JEFFERSON,MA,42.375519,71.87058,WORCESTER
01523,Northeast,Massachusetts,LANCASTER,MA,42.450984,71.686831,WORCESTER
01524,Northeast,Massachusetts,LEICESTER,MA,42.237047,71.918829,WORCESTER
01525,Northeast,Massachusetts,LINWOOD,MA,42.097222,71.645278,WORCESTER
01526,Northeast,Massachusetts,MANCHAUG,MA,42.094444,71.748056,WORCESTER
01527,Northeast,Massachusetts,MILLBURY,MA,42.196779,71.764438,WORCESTER
01529,Northeast,Massachusetts,MILLVILLE,MA,42.033102,71.579813,WORCESTER
01531,Northeast,Massachusetts,NEW BRAINTREE,MA,42.31977,72.130642,WORCESTER
01532,Northeast,Massachusetts,NORTHBOROUGH,MA,42.318242,71.646372,WORCESTER
01534,Northeast,Massachusetts,NORTHBRIDGE,MA,42.1494,71.656366,WORCESTER
01535,Northeast,Massachusetts,NORTH BROOKFIELD,MA,42.266455,72.082129,WORCESTER
01536,Northeast,Massachusetts,NORTH GRAFTON,MA,42.229726,71.703691,WORCESTER
01537,Northeast,Massachusetts,NORTH OXFORD,MA,42.16549,71.885953,WORCESTER
01538,Northeast,Massachusetts,NORTH UXBRIDGE,MA,42.0875,71.641667,WORCESTER
01540,Northeast,Massachusetts,OXFORD,MA,42.11285,71.868677,WORCESTER
01541,Northeast,Massachusetts,PRINCETON,MA,42.450812,71.876245,WORCESTER
01542,Northeast,Massachusetts,ROCHDALE,MA,42.199685,71.906882,WORCESTER
01543,Northeast,Massachusetts,RUTLAND,MA,42.376199,71.948951,WORCESTER
01545,Northeast,Massachusetts,SHREWSBURY,MA,42.284801,71.720503,WORCESTER
01546,Northeast,Massachusetts,SHREWSBURY,MA,42.295833,71.713333,WORCESTER
01550,Northeast,Massachusetts,SOUTHBRIDGE,MA,42.075024,72.035347,WORCESTER
01560,Northeast,Massachusetts,SOUTH GRAFTON,MA,42.176042,71.692725,WORCESTER
01561,Northeast,Massachusetts,SOUTH LANCASTER,MA,42.444444,71.6875,WORCESTER
01562,Northeast,Massachusetts,SPENCER,MA,42.244103,71.990617,WORCESTER
01564,Northeast,Massachusetts,STERLING,MA,42.435351,71.775192,WORCESTER
01566,Northeast,Massachusetts,STURBRIDGE,MA,42.112619,72.084233,WORCESTER
01568,Northeast,Massachusetts,UPTON,MA,42.173275,71.608014,WORCESTER
01569,Northeast,Massachusetts,UXBRIDGE,MA,42.074426,71.632869,WORCESTER
01570,Northeast,Massachusetts,WEBSTER,MA,42.047574,71.839467,WORCESTER
01571,Northeast,Massachusetts,DUDLEY,MA,42.048894,71.893228,WORCESTER
01580,Northeast,Massachusetts,WESTBOROUGH,MA,42.283,71.6015,WORCESTER
01581,Northeast,Massachusetts,WESTBOROUGH,MA,42.267891,71.617604,WORCESTER
01582,Northeast,Massachusetts,WESTBOROUGH,MA,42.283,71.6015,WORCESTER
01583,Northeast,Massachusetts,WEST BOYLSTON,MA,42.35836,71.783822,WORCESTER
01585,Northeast,Massachusetts,WEST BROOKFIELD,MA,42.244137,72.151137,WORCESTER
01586,Northeast,Massachusetts,WEST MILLBURY,MA,42.171111,71.804167,WORCESTER
01588,Northeast,Massachusetts,WHITINSVILLE,MA,42.115319,71.664357,WORCESTER
01590,Northeast,Massachusetts,SUTTON,MA,42.140586,71.748416,WORCESTER
01601,Northeast,Massachusetts,WORCESTER,MA,42.2621,71.8034,WORCESTER
01602,Northeast,Massachusetts,WORCESTER,MA,42.270251,71.841678,WORCESTER
01603,Northeast,Massachusetts,WORCESTER,MA,42.245033,71.837995,WORCESTER
01604,Northeast,Massachusetts,WORCESTER,MA,42.254084,71.774626,WORCESTER
01605,Northeast,Massachusetts,WORCESTER,MA,42.289391,71.788795,WORCESTER
01606,Northeast,Massachusetts,WORCESTER,MA,42.311029,71.795774,WORCESTER
01607,Northeast,Massachusetts,WORCESTER,MA,42.230294,71.793837,WORCESTER
01608,Northeast,Massachusetts,WORCESTER,MA,42.262425,71.800262,WORCESTER
01609,Northeast,Massachusetts,WORCESTER,MA,42.275387,71.817456,WORCESTER
01610,Northeast,Massachusetts,WORCESTER,MA,42.249186,71.810798,WORCESTER
01611,Northeast,Massachusetts,CHERRY VALLEY,MA,42.237287,71.874971,WORCESTER
01612,Northeast,Massachusetts,PAXTON,MA,42.306646,71.920234,WORCESTER
01613,Northeast,Massachusetts,WORCESTER,MA,42.2625,71.8027,WORCESTER
01614,Northeast,Massachusetts,WORCESTER,MA,42.2625,71.8027,WORCESTER
01615,Northeast,Massachusetts,WORCESTER,MA,42.2625,71.8027,WORCESTER
01653,Northeast,Massachusetts,WORCESTER,MA,42.2625,71.8027,WORCESTER
01654,Northeast,Massachusetts,WORCESTER,MA,42.2625,71.8027,WORCESTER
01655,Northeast,Massachusetts,WORCESTER,MA,42.2625,71.8027,WORCESTER
01701,Northeast,Massachusetts,FRAMINGHAM,MA,42.300665,71.425486,MIDDLESEX
01702,Northeast,Massachusetts,FRAMINGHAM,MA,42.2844,71.4295,MIDDLESEX
01703,Northeast,Massachusetts,FRAMINGHAM,MA,42.2993,71.4302,MIDDLESEX
01704,Northeast,Massachusetts,FRAMINGHAM,MA,42.2782,71.4188,MIDDLESEX
01705,Northeast,Massachusetts,FRAMINGHAM,MA,42.3277,71.403,MIDDLESEX
01718,Northeast,Massachusetts,VILLAGE OF NAGOG WOODS,MA,42.514941,71.422354,MIDDLESEX
01719,Northeast,Massachusetts,BOXBOROUGH,MA,42.486876,71.518229,MIDDLESEX
01720,Northeast,Massachusetts,ACTON,MA,42.475076,71.448255,MIDDLESEX
01721,Northeast,Massachusetts,ASHLAND,MA,42.253909,71.458347,MIDDLESEX
01730,Northeast,Massachusetts,BEDFORD,MA,42.484287,71.276796,MIDDLESEX
01731,Northeast,Massachusetts,HANSCOM AFB,MA,42.464444,71.284167,MIDDLESEX
01740,Northeast,Massachusetts,BOLTON,MA,42.436523,71.607593,WORCESTER
01741,Northeast,Massachusetts,CARLISLE,MA,42.528562,71.351892,MIDDLESEX
01742,Northeast,Massachusetts,CONCORD,MA,42.456701,71.374741,MIDDLESEX
01745,Northeast,Massachusetts,FAYVILLE,MA,42.293221,71.502256,WORCESTER
01746,Northeast,Massachusetts,HOLLISTON,MA,42.202641,71.436059,MIDDLESEX
01747,Northeast,Massachusetts,HOPEDALE,MA,42.126796,71.537601,WORCESTER
01748,Northeast,Massachusetts,HOPKINTON,MA,42.219046,71.530178,MIDDLESEX
01749,Northeast,Massachusetts,HUDSON,MA,42.391796,71.560896,MIDDLESEX
01752,Northeast,Massachusetts,MARLBOROUGH,MA,42.350861,71.543355,MIDDLESEX
01754,Northeast,Massachusetts,MAYNARD,MA,42.432118,71.454975,MIDDLESEX
01756,Northeast,Massachusetts,MENDON,MA,42.096744,71.549882,WORCESTER
01757,Northeast,Massachusetts,MILFORD,MA,42.151142,71.527402,WORCESTER
01760,Northeast,Massachusetts,NATICK,MA,42.287476,71.35741,MIDDLESEX
01770,Northeast,Massachusetts,SHERBORN,MA,42.233088,71.378717,MIDDLESEX
01772,Northeast,Massachusetts,SOUTHBOROUGH,MA,42.293919,71.531997,WORCESTER
01773,Northeast,Massachusetts,LINCOLN,MA,42.421723,71.313723,MIDDLESEX
01775,Northeast,Massachusetts,STOW,MA,42.430785,71.515019,MIDDLESEX
01776,Northeast,Massachusetts,SUDBURY,MA,42.383655,71.428159,MIDDLESEX
01778,Northeast,Massachusetts,WAYLAND,MA,42.348629,71.358781,MIDDLESEX
01784,Northeast,Massachusetts,WOODVILLE,MA,42.2375,71.5625,MIDDLESEX
01801,Northeast,Massachusetts,WOBURN,MA,42.482894,71.157404,MIDDLESEX
01803,Northeast,Massachusetts,BURLINGTON,MA,42.508942,71.200437,MIDDLESEX
01805,Northeast,Massachusetts,BURLINGTON,MA,42.504722,71.196111,MIDDLESEX
01806,Northeast,Massachusetts,WOBURN,MA,42.4791,71.1527,MIDDLESEX
01807,Northeast,Massachusetts,WOBURN,MA,42.506,71.1265,MIDDLESEX
01808,Northeast,Massachusetts,WOBURN,MA,42.506,71.1265,MIDDLESEX
01810,Northeast,Massachusetts,ANDOVER,MA,42.64956,71.156481,ESSEX
01812,Northeast,Massachusetts,ANDOVER,MA,42.6464,71.1657,ESSEX
01813,Northeast,Massachusetts,WOBURN,MA,42.506,71.1265,MIDDLESEX
01815,Northeast,Massachusetts,WOBURN,MA,42.506,71.1265,MIDDLESEX
01821,Northeast,Massachusetts,BILLERICA,MA,42.551874,71.251754,MIDDLESEX
01822,Northeast,Massachusetts,BILLERICA,MA,42.558333,71.269444,MIDDLESEX
01824,Northeast,Massachusetts,CHELMSFORD,MA,42.59356,71.357521,MIDDLESEX
01826,Northeast,Massachusetts,DRACUT,MA,42.676422,71.318592,MIDDLESEX
01827,Northeast,Massachusetts,DUNSTABLE,MA,42.673917,71.495201,MIDDLESEX
01830,Northeast,Massachusetts,HAVERHILL,MA,42.785605,71.072057,ESSEX
01831,Northeast,Massachusetts,HAVERHILL,MA,42.776111,71.077778,ESSEX
01832,Northeast,Massachusetts,HAVERHILL,MA,42.779154,71.109519,ESSEX
01833,Northeast,Massachusetts,GEORGETOWN,MA,42.728067,70.982239,ESSEX
01834,Northeast,Massachusetts,GROVELAND,MA,42.753027,71.027018,ESSEX
01835,Northeast,Massachusetts,HAVERHILL,MA,42.758597,71.08549,ESSEX
01840,Northeast,Massachusetts,LAWRENCE,MA,42.707958,71.16381,ESSEX
01841,Northeast,Massachusetts,LAWRENCE,MA,42.711545,71.166997,ESSEX
01842,Northeast,Massachusetts,LAWRENCE,MA,42.706944,71.163611,ESSEX
01843,Northeast,Massachusetts,LAWRENCE,MA,42.691053,71.160506,ESSEX
01844,Northeast,Massachusetts,METHUEN,MA,42.728019,71.181031,ESSEX
01845,Northeast,Massachusetts,NORTH ANDOVER,MA,42.682583,71.109004,ESSEX
01850,Northeast,Massachusetts,LOWELL,MA,42.656035,71.305078,MIDDLESEX
01851,Northeast,Massachusetts,LOWELL,MA,42.631548,71.332882,MIDDLESEX
01852,Northeast,Massachusetts,LOWELL,MA,42.634413,71.298331,MIDDLESEX
01853,Northeast,Massachusetts,LOWELL,MA,42.633333,71.316667,MIDDLESEX
01854,Northeast,Massachusetts,LOWELL,MA,42.649254,71.335464,MIDDLESEX
01860,Northeast,Massachusetts,MERRIMAC,MA,42.834629,71.004658,ESSEX
01862,Northeast,Massachusetts,NORTH BILLERICA,MA,42.575694,71.290217,MIDDLESEX
01863,Northeast,Massachusetts,NORTH CHELMSFORD,MA,42.634737,71.390834,MIDDLESEX
01864,Northeast,Massachusetts,NORTH READING,MA,42.581898,71.094711,MIDDLESEX
01865,Northeast,Massachusetts,NUTTING LAKE,MA,42.537778,71.269444,MIDDLESEX
01866,Northeast,Massachusetts,PINEHURST,MA,42.529167,71.228611,MIDDLESEX
01867,Northeast,Massachusetts,READING,MA,42.527986,71.109021,MIDDLESEX
01876,Northeast,Massachusetts,TEWKSBURY,MA,42.60283,71.223224,MIDDLESEX
01879,Northeast,Massachusetts,TYNGSBORO,MA,42.672383,71.415766,MIDDLESEX
01880,Northeast,Massachusetts,WAKEFIELD,MA,42.500886,71.068471,MIDDLESEX
01885,Northeast,Massachusetts,WEST BOXFORD,MA,42.706944,71.064444,ESSEX
01886,Northeast,Massachusetts,WESTFORD,MA,42.589959,71.438143,MIDDLESEX
01887,Northeast,Massachusetts,WILMINGTON,MA,42.558143,71.172306,MIDDLESEX
01888,Northeast,Massachusetts,WOBURN,MA,42.506,71.1265,MIDDLESEX
01889,Northeast,Massachusetts,NORTH READING,MA,42.575,71.079167,MIDDLESEX
01890,Northeast,Massachusetts,WINCHESTER,MA,42.453028,71.14407,MIDDLESEX
01899,Northeast,Massachusetts,ANDOVER,MA,42.6464,71.1657,ESSEX
01901,Northeast,Massachusetts,LYNN,MA,42.463378,70.945516,ESSEX
01902,Northeast,Massachusetts,LYNN,MA,42.469814,70.941989,ESSEX
01903,Northeast,Massachusetts,LYNN,MA,42.4647,70.9467,ESSEX
01904,Northeast,Massachusetts,LYNN,MA,42.487453,70.962798,ESSEX
01905,Northeast,Massachusetts,LYNN,MA,42.46453,70.973825,ESSEX
01906,Northeast,Massachusetts,SAUGUS,MA,42.463344,71.011093,ESSEX
01907,Northeast,Massachusetts,SWAMPSCOTT,MA,42.474611,70.909774,ESSEX
01908,Northeast,Massachusetts,NAHANT,MA,42.426098,70.927739,ESSEX
01910,Northeast,Massachusetts,LYNN,MA,42.4647,70.9467,ESSEX
01913,Northeast,Massachusetts,AMESBURY,MA,42.855879,70.936681,ESSEX
01915,Northeast,Massachusetts,BEVERLY,MA,42.560825,70.875939,ESSEX
01921,Northeast,Massachusetts,BOXFORD,MA,42.679719,71.011372,ESSEX
01922,Northeast,Massachusetts,BYFIELD,MA,42.756792,70.935053,ESSEX
01923,Northeast,Massachusetts,DANVERS,MA,42.569402,70.942461,ESSEX
01929,Northeast,Massachusetts,ESSEX,MA,42.628629,70.782794,ESSEX
01930,Northeast,Massachusetts,GLOUCESTER,MA,42.620836,70.672149,ESSEX
01931,Northeast,Massachusetts,GLOUCESTER,MA,42.615833,70.6625,ESSEX
01936,Northeast,Massachusetts,HAMILTON,MA,42.618333,70.856667,ESSEX
01937,Northeast,Massachusetts,HATHORNE,MA,42.586111,70.975,ESSEX
01938,Northeast,Massachusetts,IPSWICH,MA,42.680877,70.849353,ESSEX
01940,Northeast,Massachusetts,LYNNFIELD,MA,42.532711,71.033873,ESSEX
01944,Northeast,Massachusetts,MANCHESTER,MA,42.57963,70.767434,ESSEX
01945,Northeast,Massachusetts,MARBLEHEAD,MA,42.498431,70.865291,ESSEX
01949,Northeast,Massachusetts,MIDDLETON,MA,42.594184,71.013004,ESSEX
01950,Northeast,Massachusetts,NEWBURYPORT,MA,42.812964,70.884668,ESSEX
01951,Northeast,Massachusetts,NEWBURY,MA,42.783475,70.847377,ESSEX
01952,Northeast,Massachusetts,SALISBURY,MA,42.850678,70.858822,ESSEX
01960,Northeast,Massachusetts,PEABODY,MA,42.532579,70.961194,ESSEX
01961,Northeast,Massachusetts,PEABODY,MA,42.527778,70.929167,ESSEX
01965,Northeast,Massachusetts,PRIDES CROSSING,MA,42.559722,70.825,ESSEX
01966,Northeast,Massachusetts,ROCKPORT,MA,42.657973,70.619424,ESSEX
01969,Northeast,Massachusetts,ROWLEY,MA,42.713753,70.90696,ESSEX
01970,Northeast,Massachusetts,SALEM,MA,42.515114,70.900343,ESSEX
01971,Northeast,Massachusetts,SALEM,MA,42.519444,70.897222,ESSEX
01982,Northeast,Massachusetts,SOUTH HAMILTON,MA,42.618478,70.856132,ESSEX
01983,Northeast,Massachusetts,TOPSFIELD,MA,42.641546,70.948843,ESSEX
01984,Northeast,Massachusetts,WENHAM,MA,42.60166,70.878622,ESSEX
01985,Northeast,Massachusetts,WEST NEWBURY,MA,42.794865,70.977811,ESSEX
02018,Northeast,Massachusetts,ACCORD,MA,42.1747,70.8871,PLYMOUTH
02019,Northeast,Massachusetts,BELLINGHAM,MA,42.074573,71.476829,NORFOLK
02020,Northeast,Massachusetts,BRANT ROCK,MA,42.086111,70.641667,PLYMOUTH
02021,Northeast,Massachusetts,CANTON,MA,42.164454,71.135536,NORFOLK
02025,Northeast,Massachusetts,COHASSET,MA,42.239484,70.812788,NORFOLK
02026,Northeast,Massachusetts,DEDHAM,MA,42.243685,71.163741,NORFOLK
02027,Northeast,Massachusetts,DEDHAM,MA,42.241667,71.166667,NORFOLK
02030,Northeast,Massachusetts,DOVER,MA,42.236233,71.285363,NORFOLK
02031,Northeast,Massachusetts,EAST MANSFIELD,MA,42.023056,71.177778,BRISTOL
02032,Northeast,Massachusetts,EAST WALPOLE,MA,42.15324,71.2179,NORFOLK
02035,Northeast,Massachusetts,FOXBORO,MA,42.064938,71.244127,NORFOLK
02038,Northeast,Massachusetts,FRANKLIN,MA,42.09347,71.405786,NORFOLK
02040,Northeast,Massachusetts,GREENBUSH,MA,42.179167,70.75,PLYMOUTH
02041,Northeast,Massachusetts,GREEN HARBOR,MA,42.077778,70.65,PLYMOUTH
02043,Northeast,Massachusetts,HINGHAM,MA,42.224485,70.891051,PLYMOUTH
02044,Northeast,Massachusetts,HINGHAM,MA,42.2424,70.8906,PLYMOUTH
02045,Northeast,Massachusetts,HULL,MA,42.285346,70.875442,PLYMOUTH
02047,Northeast,Massachusetts,HUMAROCK,MA,42.136111,70.690556,PLYMOUTH
02048,Northeast,Massachusetts,MANSFIELD,MA,42.021238,71.217775,BRISTOL
02050,Northeast,Massachusetts,MARSHFIELD,MA,42.106177,70.69931,PLYMOUTH
02051,Northeast,Massachusetts,MARSHFIELD HILLS,MA,42.133333,70.758333,PLYMOUTH
02052,Northeast,Massachusetts,MEDFIELD,MA,42.184525,71.304813,NORFOLK
02053,Northeast,Massachusetts,MEDWAY,MA,42.151363,71.421715,NORFOLK
02054,Northeast,Massachusetts,MILLIS,MA,42.166938,71.360693,NORFOLK
02055,Northeast,Massachusetts,MINOT,MA,42.195833,70.726389,PLYMOUTH
02056,Northeast,Massachusetts,NORFOLK,MA,42.117746,71.326934,NORFOLK
02059,Northeast,Massachusetts,NORTH MARSHFIELD,MA,42.143056,70.770833,PLYMOUTH
02060,Northeast,Massachusetts,NORTH SCITUATE,MA,42.218889,70.786111,PLYMOUTH
02061,Northeast,Massachusetts,NORWELL,MA,42.159574,70.82172,PLYMOUTH
02062,Northeast,Massachusetts,NORWOOD,MA,42.186843,71.203313,NORFOLK
02065,Northeast,Massachusetts,OCEAN BLUFF,MA,42.097222,70.654167,PLYMOUTH
02066,Northeast,Massachusetts,SCITUATE,MA,42.203235,70.752476,PLYMOUTH
02067,Northeast,Massachusetts,SHARON,MA,42.109388,71.175872,NORFOLK
02070,Northeast,Massachusetts,SHELDONVILLE,MA,42.034722,71.3875,NORFOLK
02071,Northeast,Massachusetts,SOUTH WALPOLE,MA,42.099203,71.275235,NORFOLK
02072,Northeast,Massachusetts,STOUGHTON,MA,42.125279,71.107357,NORFOLK
02081,Northeast,Massachusetts,WALPOLE,MA,42.144413,71.254391,NORFOLK
02090,Northeast,Massachusetts,WESTWOOD,MA,42.214824,71.210426,NORFOLK
02093,Northeast,Massachusetts,WRENTHAM,MA,42.061746,71.339568,NORFOLK
02108,Northeast,Massachusetts,BOSTON,MA,42.357603,71.068432,SUFFOLK
02109,Northeast,Massachusetts,BOSTON,MA,42.362963,71.053386,SUFFOLK
02110,Northeast,Massachusetts,BOSTON,MA,42.357636,71.051417,SUFFOLK
02111,Northeast,Massachusetts,BOSTON,MA,42.350348,71.0629,SUFFOLK
02112,Northeast,Massachusetts,BOSTON,MA,42.3583,71.0602,SUFFOLK
02113,Northeast,Massachusetts,BOSTON,MA,42.365656,71.055958,SUFFOLK
02114,Northeast,Massachusetts,BOSTON,MA,42.361111,71.06823,SUFFOLK
02115,Northeast,Massachusetts,BOSTON,MA,42.342706,71.092215,SUFFOLK
02116,Northeast,Massachusetts,BOSTON,MA,42.349201,71.076798,SUFFOLK
02117,Northeast,Massachusetts,BOSTON,MA,42.3503,71.0762,SUFFOLK
02118,Northeast,Massachusetts,BOSTON,MA,42.340154,71.075627,SUFFOLK
02119,Northeast,Massachusetts,BOSTON,MA,42.322414,71.086923,SUFFOLK
02120,Northeast,Massachusetts,BOSTON,MA,42.332844,71.097978,SUFFOLK
02121,Northeast,Massachusetts,BOSTON,MA,42.307503,71.08305,SUFFOLK
02122,Northeast,Massachusetts,BOSTON,MA,42.297278,71.058304,SUFFOLK
02123,Northeast,Massachusetts,BOSTON,MA,42.345,71.0876,SUFFOLK
02124,Northeast,Massachusetts,BOSTON,MA,42.287984,71.072898,SUFFOLK
02125,Northeast,Massachusetts,BOSTON,MA,42.315305,71.061924,SUFFOLK
02126,Northeast,Massachusetts,MATTAPAN,MA,42.273889,71.093871,SUFFOLK
02127,Northeast,Massachusetts,BOSTON,MA,42.333454,71.043792,SUFFOLK
02128,Northeast,Massachusetts,BOSTON,MA,42.378137,71.028682,SUFFOLK
02129,Northeast,Massachusetts,CHARLESTOWN,MA,42.377815,71.062715,SUFFOLK
02130,Northeast,Massachusetts,JAMAICA PLAIN,MA,42.312596,71.111495,SUFFOLK
02131,Northeast,Massachusetts,ROSLINDALE,MA,42.283615,71.129543,SUFFOLK
02132,Northeast,Massachusetts,WEST ROXBURY,MA,42.27868,71.158868,SUFFOLK
02133,Northeast,Massachusetts,BOSTON,MA,42.3573,71.065,SUFFOLK
02134,Northeast,Massachusetts,ALLSTON,MA,42.353519,71.132866,SUFFOLK
02135,Northeast,Massachusetts,BRIGHTON,MA,42.34779,71.156599,SUFFOLK
02136,Northeast,Massachusetts,HYDE PARK,MA,42.253989,71.126052,SUFFOLK
02137,Northeast,Massachusetts,READVILLE,MA,42.249167,71.229167,SUFFOLK
02138,Northeast,Massachusetts,CAMBRIDGE,MA,42.377045,71.125611,MIDDLESEX
02139,Northeast,Massachusetts,CAMBRIDGE,MA,42.364688,71.104155,MIDDLESEX
02140,Northeast,Massachusetts,CAMBRIDGE,MA,42.391366,71.129379,MIDDLESEX
02141,Northeast,Massachusetts,CAMBRIDGE,MA,42.370701,71.088277,MIDDLESEX
02142,Northeast,Massachusetts,CAMBRIDGE,MA,42.362025,71.083011,MIDDLESEX
02143,Northeast,Massachusetts,SOMERVILLE,MA,42.382945,71.102814,MIDDLESEX
02144,Northeast,Massachusetts,SOMERVILLE,MA,42.40032,71.122059,MIDDLESEX
02145,Northeast,Massachusetts,SOMERVILLE,MA,42.390678,71.092944,MIDDLESEX
02148,Northeast,Massachusetts,MALDEN,MA,42.42911,71.060507,MIDDLESEX
02149,Northeast,Massachusetts,EVERETT,MA,42.411199,71.051448,MIDDLESEX
02150,Northeast,Massachusetts,CHELSEA,MA,42.396252,71.032521,SUFFOLK
02151,Northeast,Massachusetts,REVERE,MA,42.413767,71.005165,SUFFOLK
02152,Northeast,Massachusetts,WINTHROP,MA,42.376294,70.980043,SUFFOLK
02153,Northeast,Massachusetts,MEDFORD,MA,42.418333,71.106667,MIDDLESEX
02155,Northeast,Massachusetts,MEDFORD,MA,42.417335,71.108686,MIDDLESEX
02156,Northeast,Massachusetts,WEST MEDFORD,MA,42.422222,71.133333,MIDDLESEX
02163,Northeast,Massachusetts,BOSTON,MA,42.364005,71.141879,SUFFOLK
02169,Northeast,Massachusetts,QUINCY,MA,42.249133,70.997816,NORFOLK
02170,Northeast,Massachusetts,QUINCY,MA,42.26713,71.018644,NORFOLK
02171,Northeast,Massachusetts,QUINCY,MA,42.282519,71.024141,NORFOLK
02176,Northeast,Massachusetts,MELROSE,MA,42.458066,71.063191,MIDDLESEX
02180,Northeast,Massachusetts,STONEHAM,MA,42.482778,71.0978,MIDDLESEX
02184,Northeast,Massachusetts,BRAINTREE,MA,42.209284,70.996304,NORFOLK
02185,Northeast,Massachusetts,BRAINTREE,MA,42.222222,71,NORFOLK
02186,Northeast,Massachusetts,MILTON,MA,42.253663,71.077051,NORFOLK
02187,Northeast,Massachusetts,MILTON VILLAGE,MA,42.266667,71.072222,NORFOLK
02188,Northeast,Massachusetts,WEYMOUTH,MA,42.211327,70.958248,NORFOLK
02189,Northeast,Massachusetts,EAST WEYMOUTH,MA,42.211606,70.931671,NORFOLK
02190,Northeast,Massachusetts,SOUTH WEYMOUTH,MA,42.172817,70.94869,NORFOLK
02191,Northeast,Massachusetts,NORTH WEYMOUTH,MA,42.243564,70.944318,NORFOLK
02196,Northeast,Massachusetts,BOSTON,MA,42.3583,71.0602,SUFFOLK
02199,Northeast,Massachusetts,BOSTON,MA,42.347873,71.082543,SUFFOLK
02201,Northeast,Massachusetts,BOSTON,MA,42.3624,71.0628,SUFFOLK
02203,Northeast,Massachusetts,BOSTON,MA,42.3624,71.0628,SUFFOLK
02204,Northeast,Massachusetts,BOSTON,MA,42.3624,71.0628,SUFFOLK
02205,Northeast,Massachusetts,BOSTON,MA,42.348,71.0551,SUFFOLK
02206,Northeast,Massachusetts,BOSTON,MA,42.3583,71.0602,SUFFOLK
02207,Northeast,Massachusetts,BOSTON,MA,42.3576,71.0579,SUFFOLK
02210,Northeast,Massachusetts,BOSTON,MA,42.348921,71.046511,SUFFOLK
02211,Northeast,Massachusetts,BOSTON,MA,42.3576,71.0579,SUFFOLK
02212,Northeast,Massachusetts,BOSTON,MA,42.3576,71.0579,SUFFOLK
02215,Northeast,Massachusetts,BOSTON,MA,42.347088,71.102689,SUFFOLK
02216,Northeast,Massachusetts,BOSTON,MA,42.3487,71.0745,SUFFOLK
02217,Northeast,Massachusetts,BOSTON,MA,42.3487,71.0745,SUFFOLK
02222,Northeast,Massachusetts,BOSTON,MA,42.3624,71.0628,SUFFOLK
02228,Northeast,Massachusetts,EAST BOSTON,MA,42.375,71.039722,SUFFOLK
02238,Northeast,Massachusetts,CAMBRIDGE,MA,42.3731,71.124,MIDDLESEX
02239,Northeast,Massachusetts,CAMBRIDGE,MA,42.3662,71.1063,MIDDLESEX
02241,Northeast,Massachusetts,BOSTON,MA,42.3576,71.0579,SUFFOLK
02266,Northeast,Massachusetts,BOSTON,MA,42.3583,71.0602,SUFFOLK
02269,Northeast,Massachusetts,QUINCY,MA,42.252778,71.002778,NORFOLK
02283,Northeast,Massachusetts,BOSTON,MA,42.3483,71.0556,SUFFOLK
02284,Northeast,Massachusetts,BOSTON,MA,42.3483,71.0556,SUFFOLK
02293,Northeast,Massachusetts,BOSTON,MA,42.3583,71.0602,SUFFOLK
02295,Northeast,Massachusetts,BOSTON,MA,42.3487,71.0745,SUFFOLK
02297,Northeast,Massachusetts,BOSTON,MA,42.3583,71.0602,SUFFOLK
02298,Northeast,Massachusetts,BOSTON,MA,42.3422,71.0506,SUFFOLK
02301,Northeast,Massachusetts,BROCKTON,MA,42.08,71.0377,PLYMOUTH
02302,Northeast,Massachusetts,BROCKTON,MA,42.088,71.0018,PLYMOUTH
02303,Northeast,Massachusetts,BROCKTON,MA,42.0828,71.0164,PLYMOUTH
02304,Northeast,Massachusetts,BROCKTON,MA,42.0635,71.0157,PLYMOUTH
02305,Northeast,Massachusetts,BROCKTON,MA,42.0635,71.0157,PLYMOUTH
02322,Northeast,Massachusetts,AVON,MA,42.125825,71.043738,NORFOLK
02324,Northeast,Massachusetts,BRIDGEWATER,MA,41.977341,70.97234,PLYMOUTH
02325,Northeast,Massachusetts,BRIDGEWATER,MA,41.990278,70.975556,PLYMOUTH
02327,Northeast,Massachusetts,BRYANTVILLE,MA,42.043889,70.843056,PLYMOUTH
02330,Northeast,Massachusetts,CARVER,MA,41.888265,70.767754,PLYMOUTH
02331,Northeast,Massachusetts,DUXBURY,MA,42.041667,70.672778,PLYMOUTH
02332,Northeast,Massachusetts,DUXBURY,MA,42.039936,70.716257,PLYMOUTH
02333,Northeast,Massachusetts,EAST BRIDGEWATER,MA,42.031478,70.944964,PLYMOUTH
02334,Northeast,Massachusetts,EASTON,MA,42.024444,71.129167,BRISTOL
02337,Northeast,Massachusetts,ELMWOOD,MA,42.009722,70.9625,PLYMOUTH
02338,Northeast,Massachusetts,HALIFAX,MA,42.000159,70.844794,PLYMOUTH
02339,Northeast,Massachusetts,HANOVER,MA,42.121406,70.857006,PLYMOUTH
02340,Northeast,Massachusetts,HANOVER,MA,42.113056,70.8125,PLYMOUTH
02341,Northeast,Massachusetts,HANSON,MA,42.061627,70.865053,PLYMOUTH
02343,Northeast,Massachusetts,HOLBROOK,MA,42.14641,71.008273,NORFOLK
02344,Northeast,Massachusetts,MIDDLEBORO,MA,41.8938,70.9187,PLYMOUTH
02345,Northeast,Massachusetts,MANOMET,MA,41.918611,70.566667,PLYMOUTH
02346,Northeast,Massachusetts,MIDDLEBORO,MA,41.888396,70.892965,PLYMOUTH
02347,Northeast,Massachusetts,LAKEVILLE,MA,41.837377,70.958195,PLYMOUTH
02348,Northeast,Massachusetts,LAKEVILLE,MA,41.8309,70.9599,PLYMOUTH
02349,Northeast,Massachusetts,MIDDLEBORO,MA,41.8938,70.9187,PLYMOUTH
02350,Northeast,Massachusetts,MONPONSETT,MA,42.018333,70.847222,PLYMOUTH
02351,Northeast,Massachusetts,ABINGTON,MA,42.116715,70.954293,PLYMOUTH
02355,Northeast,Massachusetts,NORTH CARVER,MA,41.920278,70.8,PLYMOUTH
02356,Northeast,Massachusetts,NORTH EASTON,MA,42.058956,71.112337,BRISTOL
02357,Northeast,Massachusetts,NORTH EASTON,MA,42.066667,71.104167,BRISTOL
02358,Northeast,Massachusetts,NORTH PEMBROKE,MA,42.093056,70.793056,PLYMOUTH
02359,Northeast,Massachusetts,PEMBROKE,MA,42.062072,70.804404,PLYMOUTH
02360,Northeast,Massachusetts,PLYMOUTH,MA,41.910404,70.642004,PLYMOUTH
02361,Northeast,Massachusetts,PLYMOUTH,MA,41.9236,70.6571,PLYMOUTH
02362,Northeast,Massachusetts,PLYMOUTH,MA,41.9236,70.6571,PLYMOUTH
02364,Northeast,Massachusetts,KINGSTON,MA,41.995022,70.740993,PLYMOUTH
02366,Northeast,Massachusetts,SOUTH CARVER,MA,41.840556,70.747222,PLYMOUTH
02367,Northeast,Massachusetts,PLYMPTON,MA,41.96549,70.804582,PLYMOUTH
02368,Northeast,Massachusetts,RANDOLPH,MA,42.173587,71.051392,NORFOLK
02370,Northeast,Massachusetts,ROCKLAND,MA,42.129286,70.913263,PLYMOUTH
02375,Northeast,Massachusetts,SOUTH EASTON,MA,42.025704,71.098814,BRISTOL
02379,Northeast,Massachusetts,WEST BRIDGEWATER,MA,42.025511,71.016054,PLYMOUTH
02381,Northeast,Massachusetts,WHITE HORSE BEACH,MA,41.930833,70.558333,PLYMOUTH
02382,Northeast,Massachusetts,WHITMAN,MA,42.081603,70.938127,PLYMOUTH
02420,Northeast,Massachusetts,LEXINGTON,MA,42.4558,71.2193,MIDDLESEX
02421,Northeast,Massachusetts,LEXINGTON,MA,42.4373,71.236,MIDDLESEX
02445,Northeast,Massachusetts,BROOKLINE,MA,42.3302,71.1304,NORFOLK
02446,Northeast,Massachusetts,BROOKLINE,MA,42.3443,71.1201,NORFOLK
02447,Northeast,Massachusetts,BROOKLINE VILLAGE,MA,42.332778,71.116667,NORFOLK
02451,Northeast,Massachusetts,WALTHAM,MA,42.3954,71.2508,MIDDLESEX
02452,Northeast,Massachusetts,WALTHAM,MA,42.3919,71.2205,MIDDLESEX
02453,Northeast,Massachusetts,WALTHAM,MA,42.371111,71.234444,MIDDLESEX
02454,Northeast,Massachusetts,WALTHAM,MA,42.3888,71.2426,MIDDLESEX
02455,Northeast,Massachusetts,NORTH WALTHAM,MA,42.393056,71.220278,MIDDLESEX
02456,Northeast,Massachusetts,NEW TOWN,MA,42.36,71.130556,MIDDLESEX
02457,Northeast,Massachusetts,BABSON PARK,MA,42.298611,71.26,NORFOLK
02458,Northeast,Massachusetts,NEWTON,MA,42.3545,71.1877,MIDDLESEX
02459,Northeast,Massachusetts,NEWTON CENTER,MA,42.336944,71.209722,MIDDLESEX
02460,Northeast,Massachusetts,NEWTONVILLE,MA,42.3521,71.2081,MIDDLESEX
02461,Northeast,Massachusetts,NEWTON HIGHLANDS,MA,42.320833,71.2,MIDDLESEX
02462,Northeast,Massachusetts,NEWTON LOWER FALLS,MA,42.329167,71.254167,MIDDLESEX
02464,Northeast,Massachusetts,NEWTON UPPER FALLS,MA,42.313889,71.22,MIDDLESEX
02465,Northeast,Massachusetts,WEST NEWTON,MA,42.35,71.233333,MIDDLESEX
02466,Northeast,Massachusetts,AUBURNDALE,MA,42.347222,71.25,MIDDLESEX
02467,Northeast,Massachusetts,CHESTNUT HILL,MA,42.330556,71.166667,MIDDLESEX
02468,Northeast,Massachusetts,WABAN,MA,42.327778,71.227778,MIDDLESEX
02471,Northeast,Massachusetts,WATERTOWN,MA,42.3733,71.154,MIDDLESEX
02472,Northeast,Massachusetts,WATERTOWN,MA,42.3704,71.1757,MIDDLESEX
02474,Northeast,Massachusetts,ARLINGTON,MA,42.404167,71.147222,MIDDLESEX
02475,Northeast,Massachusetts,ARLINGTON HEIGHTS,MA,42.420278,71.180556,MIDDLESEX
02476,Northeast,Massachusetts,ARLINGTON,MA,42.415278,71.156944,MIDDLESEX
02477,Northeast,Massachusetts,WATERTOWN,MA,42.4185,71.1644,MIDDLESEX
02478,Northeast,Massachusetts,BELMONT,MA,42.395833,71.179167,MIDDLESEX
02479,Northeast,Massachusetts,WAVERLEY,MA,42.3875,71.183333,MIDDLESEX
02481,Northeast,Massachusetts,WELLESLEY HILLS,MA,42.3133,71.2695,NORFOLK
02482,Northeast,Massachusetts,WELLESLEY,MA,42.2986,71.3016,NORFOLK
02492,Northeast,Massachusetts,NEEDHAM,MA,42.2778,71.235,NORFOLK
02493,Northeast,Massachusetts,WESTON,MA,42.366667,71.303611,MIDDLESEX
02494,Northeast,Massachusetts,NEEDHAM HEIGHTS,MA,42.2997,71.2321,NORFOLK
02495,Northeast,Massachusetts,NONANTUM,MA,42.3625,71.202778,MIDDLESEX
02532,Northeast,Massachusetts,BUZZARDS BAY,MA,41.752918,70.593168,BARNSTABLE
02534,Northeast,Massachusetts,CATAUMET,MA,41.666111,70.620278,BARNSTABLE
02535,Northeast,Massachusetts,CHILMARK,MA,41.357523,70.741613,DUKES
02536,Northeast,Massachusetts,EAST FALMOUTH,MA,41.58504,70.565174,BARNSTABLE
02537,Northeast,Massachusetts,EAST SANDWICH,MA,41.684603,70.46822,BARNSTABLE
02538,Northeast,Massachusetts,EAST WAREHAM,MA,41.768247,70.653237,PLYMOUTH
02539,Northeast,Massachusetts,EDGARTOWN,MA,41.388856,70.533893,DUKES
02540,Northeast,Massachusetts,FALMOUTH,MA,41.564754,70.621663,BARNSTABLE
02541,Northeast,Massachusetts,FALMOUTH,MA,41.551389,70.615278,BARNSTABLE
02542,Northeast,Massachusetts,BUZZARDS BAY,MA,41.660927,70.57383,BARNSTABLE
02543,Northeast,Massachusetts,WOODS HOLE,MA,41.526272,70.66431,BARNSTABLE
02552,Northeast,Massachusetts,MENEMSHA,MA,41.351667,70.764722,DUKES
02553,Northeast,Massachusetts,MONUMENT BEACH,MA,41.719444,70.6125,BARNSTABLE
02554,Northeast,Massachusetts,NANTUCKET,MA,41.272529,70.093216,NANTUCKET
02556,Northeast,Massachusetts,NORTH FALMOUTH,MA,41.641677,70.623043,BARNSTABLE
02557,Northeast,Massachusetts,OAK BLUFFS,MA,41.454167,70.5625,DUKES
02558,Northeast,Massachusetts,ONSET,MA,41.741667,70.658333,PLYMOUTH
02559,Northeast,Massachusetts,POCASSET,MA,41.688115,70.610512,BARNSTABLE
02561,Northeast,Massachusetts,SAGAMORE,MA,41.77,70.528889,BARNSTABLE
02562,Northeast,Massachusetts,SAGAMORE BEACH,MA,41.798333,70.529444,BARNSTABLE
02563,Northeast,Massachusetts,SANDWICH,MA,41.698304,70.469325,BARNSTABLE
02564,Northeast,Massachusetts,SIASCONSET,MA,41.2625,69.966667,NANTUCKET
02565,Northeast,Massachusetts,SILVER BEACH,MA,42.640278,70.6375,BARNSTABLE
02568,Northeast,Massachusetts,VINEYARD HAVEN,MA,41.449955,70.593737,DUKES
02571,Northeast,Massachusetts,WAREHAM,MA,41.754084,70.711594,PLYMOUTH
02573,Northeast,Massachusetts,WEST CHOP,MA,41.48,70.603333,DUKES
02574,Northeast,Massachusetts,WEST FALMOUTH,MA,41.604167,70.635,BARNSTABLE
02575,Northeast,Massachusetts,WEST TISBURY,MA,41.413717,70.655802,DUKES
02576,Northeast,Massachusetts,WEST WAREHAM,MA,41.779617,70.764179,PLYMOUTH
02584,Northeast,Massachusetts,NANTUCKET,MA,41.283333,70.1,NANTUCKET
02601,Northeast,Massachusetts,HYANNIS,MA,41.653682,70.298176,BARNSTABLE
02630,Northeast,Massachusetts,BARNSTABLE,MA,41.698289,70.300067,BARNSTABLE
02631,Northeast,Massachusetts,BREWSTER,MA,41.749179,70.069868,BARNSTABLE
02632,Northeast,Massachusetts,CENTERVILLE,MA,41.660585,70.353196,BARNSTABLE
02633,Northeast,Massachusetts,CHATHAM,MA,41.687634,69.980758,BARNSTABLE
02634,Northeast,Massachusetts,CENTERVILLE,MA,41.6486,70.3486,BARNSTABLE
02635,Northeast,Massachusetts,COTUIT,MA,41.696025,70.433431,BARNSTABLE
02636,Northeast,Massachusetts,CENTERVILLE,MA,41.6486,70.3486,BARNSTABLE
02637,Northeast,Massachusetts,CUMMAQUID,MA,41.701667,70.273611,BARNSTABLE
02638,Northeast,Massachusetts,DENNIS,MA,41.732166,70.191054,BARNSTABLE
02639,Northeast,Massachusetts,DENNIS PORT,MA,41.664873,70.132711,BARNSTABLE
02641,Northeast,Massachusetts,EAST DENNIS,MA,41.7425,70.1625,BARNSTABLE
02642,Northeast,Massachusetts,EASTHAM,MA,41.840781,69.984865,BARNSTABLE
02643,Northeast,Massachusetts,EAST ORLEANS,MA,41.785,69.970833,BARNSTABLE
02644,Northeast,Massachusetts,FORESTDALE,MA,41.682695,70.514317,BARNSTABLE
02645,Northeast,Massachusetts,HARWICH,MA,41.70082,70.057929,BARNSTABLE
02646,Northeast,Massachusetts,HARWICH PORT,MA,41.67128,70.076755,BARNSTABLE
02647,Northeast,Massachusetts,HYANNIS PORT,MA,41.635556,70.3,BARNSTABLE
02648,Northeast,Massachusetts,MARSTONS MILLS,MA,41.670274,70.416321,BARNSTABLE
02649,Northeast,Massachusetts,MASHPEE,MA,41.618116,70.485361,BARNSTABLE
02650,Northeast,Massachusetts,NORTH CHATHAM,MA,41.70298,69.966607,BARNSTABLE
02651,Northeast,Massachusetts,NORTH EASTHAM,MA,41.865,69.991667,BARNSTABLE
02652,Northeast,Massachusetts,NORTH TRURO,MA,42.033779,70.08751,BARNSTABLE
02653,Northeast,Massachusetts,ORLEANS,MA,41.779161,69.982198,BARNSTABLE
02655,Northeast,Massachusetts,OSTERVILLE,MA,41.63005,70.383726,BARNSTABLE
02657,Northeast,Massachusetts,PROVINCETOWN,MA,42.053364,70.186504,BARNSTABLE
02659,Northeast,Massachusetts,SOUTH CHATHAM,MA,41.680126,70.024106,BARNSTABLE
02660,Northeast,Massachusetts,SOUTH DENNIS,MA,41.709711,70.15851,BARNSTABLE
02661,Northeast,Massachusetts,SOUTH HARWICH,MA,41.675,70.044444,BARNSTABLE
02662,Northeast,Massachusetts,SOUTH ORLEANS,MA,41.750556,69.991667,BARNSTABLE
02663,Northeast,Massachusetts,SOUTH WELLFLEET,MA,41.918056,69.995833,BARNSTABLE
02664,Northeast,Massachusetts,SOUTH YARMOUTH,MA,41.672805,70.19731,BARNSTABLE
02666,Northeast,Massachusetts,TRURO,MA,41.998792,70.056362,BARNSTABLE
02667,Northeast,Massachusetts,WELLFLEET,MA,41.928934,70.018587,BARNSTABLE
02668,Northeast,Massachusetts,WEST BARNSTABLE,MA,41.700212,70.371985,BARNSTABLE
02669,Northeast,Massachusetts,WEST CHATHAM,MA,41.681111,69.991667,BARNSTABLE
02670,Northeast,Massachusetts,WEST DENNIS,MA,41.662557,70.168092,BARNSTABLE
02671,Northeast,Massachusetts,WEST HARWICH,MA,41.669367,70.113501,BARNSTABLE
02672,Northeast,Massachusetts,WEST HYANNISPORT,MA,41.636111,70.320833,BARNSTABLE
02673,Northeast,Massachusetts,WEST YARMOUTH,MA,41.661367,70.236297,BARNSTABLE
02675,Northeast,Massachusetts,YARMOUTH PORT,MA,41.705149,70.227014,BARNSTABLE
02702,Northeast,Massachusetts,ASSONET,MA,41.797458,71.060736,BRISTOL
02703,Northeast,Massachusetts,ATTLEBORO,MA,41.929599,71.30092,BRISTOL
02712,Northeast,Massachusetts,CHARTLEY,MA,41.948611,71.226389,BRISTOL
02713,Northeast,Massachusetts,CUTTYHUNK,MA,41.443601,70.87854,DUKES
02714,Northeast,Massachusetts,DARTMOUTH,MA,41.640833,70.98,BRISTOL
02715,Northeast,Massachusetts,DIGHTON,MA,41.812505,71.142723,BRISTOL
02717,Northeast,Massachusetts,EAST FREETOWN,MA,41.763455,70.967709,BRISTOL
02718,Northeast,Massachusetts,EAST TAUNTON,MA,41.873585,71.019225,BRISTOL
02719,Northeast,Massachusetts,FAIRHAVEN,MA,41.640924,70.889608,BRISTOL
02720,Northeast,Massachusetts,FALL RIVER,MA,41.718221,71.139991,BRISTOL
02721,Northeast,Massachusetts,FALL RIVER,MA,41.688305,71.157424,BRISTOL
02722,Northeast,Massachusetts,FALL RIVER,MA,41.701389,71.155556,BRISTOL
02723,Northeast,Massachusetts,FALL RIVER,MA,41.692612,71.133214,BRISTOL
02724,Northeast,Massachusetts,FALL RIVER,MA,41.684975,71.174822,BRISTOL
02725,Northeast,Massachusetts,SOMERSET,MA,41.722299,71.177971,BRISTOL
02726,Northeast,Massachusetts,SOMERSET,MA,41.756012,71.149206,BRISTOL
02738,Northeast,Massachusetts,MARION,MA,41.709526,70.761261,PLYMOUTH
02739,Northeast,Massachusetts,MATTAPOISETT,MA,41.661845,70.816357,PLYMOUTH
02740,Northeast,Massachusetts,NEW BEDFORD,MA,41.634749,70.9372,BRISTOL
02741,Northeast,Massachusetts,NEW BEDFORD,MA,41.6364,70.9275,BRISTOL
02742,Northeast,Massachusetts,NEW BEDFORD,MA,41.6364,70.9275,BRISTOL
02743,Northeast,Massachusetts,ACUSHNET,MA,41.6997,70.908652,BRISTOL
02744,Northeast,Massachusetts,NEW BEDFORD,MA,41.612716,70.916746,BRISTOL
02745,Northeast,Massachusetts,NEW BEDFORD,MA,41.691337,70.935545,BRISTOL
02746,Northeast,Massachusetts,NEW BEDFORD,MA,41.659972,70.93243,BRISTOL
02747,Northeast,Massachusetts,NORTH DARTMOUTH,MA,41.633789,70.995769,BRISTOL
02748,Northeast,Massachusetts,SOUTH DARTMOUTH,MA,41.591728,70.956521,BRISTOL
02760,Northeast,Massachusetts,NORTH ATTLEBORO,MA,41.977542,71.329757,BRISTOL
02761,Northeast,Massachusetts,NORTH ATTLEBORO,MA,41.983333,71.333333,BRISTOL
02762,Northeast,Massachusetts,PLAINVILLE,MA,42.012403,71.327454,NORFOLK
02763,Northeast,Massachusetts,ATTLEBORO FALLS,MA,41.970979,71.310353,BRISTOL
02764,Northeast,Massachusetts,NORTH DIGHTON,MA,41.852874,71.148523,BRISTOL
02766,Northeast,Massachusetts,NORTON,MA,41.971801,71.189441,BRISTOL
02767,Northeast,Massachusetts,RAYNHAM,MA,41.932361,71.046856,BRISTOL
02768,Northeast,Massachusetts,RAYNHAM CENTER,MA,41.923611,71.052778,BRISTOL
02769,Northeast,Massachusetts,REHOBOTH,MA,41.85152,71.254453,BRISTOL
02770,Northeast,Massachusetts,ROCHESTER,MA,41.759082,70.852257,PLYMOUTH
02771,Northeast,Massachusetts,SEEKONK,MA,41.837835,71.322406,BRISTOL
02777,Northeast,Massachusetts,SWANSEA,MA,41.74734,71.212167,BRISTOL
02779,Northeast,Massachusetts,BERKLEY,MA,41.835325,71.076534,BRISTOL
02780,Northeast,Massachusetts,TAUNTON,MA,41.905007,71.10261,BRISTOL
02783,Northeast,Massachusetts,TAUNTON,MA,41.905556,71.105556,BRISTOL
02790,Northeast,Massachusetts,WESTPORT,MA,41.621127,71.089003,BRISTOL
02791,Northeast,Massachusetts,WESTPORT POINT,MA,41.522222,71.075,BRISTOL
02801,Northeast,Rhode Island,ADAMSVILLE,RI,41.554444,71.131667,NEWPORT
02802,Northeast,Rhode Island,ALBION,RI,41.951111,71.455,PROVIDENCE
02804,Northeast,Rhode Island,ASHAWAY,RI,41.423054,71.783745,WASHINGTON
02806,Northeast,Rhode Island,BARRINGTON,RI,41.744334,71.317497,BRISTOL
02807,Northeast,Rhode Island,BLOCK ISLAND,RI,41.171546,71.574825,WASHINGTON
02808,Northeast,Rhode Island,BRADFORD,RI,41.411448,71.746453,WASHINGTON
02809,Northeast,Rhode Island,BRISTOL,RI,41.68247,71.267558,BRISTOL
02812,Northeast,Rhode Island,CAROLINA,RI,41.46941,71.650279,WASHINGTON
02813,Northeast,Rhode Island,CHARLESTOWN,RI,41.400749,71.661455,WASHINGTON
02814,Northeast,Rhode Island,CHEPACHET,RI,41.91549,71.679483,PROVIDENCE
02815,Northeast,Rhode Island,CLAYVILLE,RI,41.777762,71.670589,PROVIDENCE
02816,Northeast,Rhode Island,COVENTRY,RI,41.69143,71.576794,KENT
02817,Northeast,Rhode Island,WEST GREENWICH,RI,41.639977,71.643549,KENT
02818,Northeast,Rhode Island,EAST GREENWICH,RI,41.649777,71.474009,KENT
02822,Northeast,Rhode Island,EXETER,RI,41.574031,71.607626,WASHINGTON
02823,Northeast,Rhode Island,FISKEVILLE,RI,41.734167,71.548611,PROVIDENCE
02824,Northeast,Rhode Island,FORESTDALE,RI,41.945833,71.700278,PROVIDENCE
02825,Northeast,Rhode Island,FOSTER,RI,41.781455,71.718748,PROVIDENCE
02826,Northeast,Rhode Island,GLENDALE,RI,41.976111,71.633056,PROVIDENCE
02827,Northeast,Rhode Island,GREENE,RI,41.706151,71.735607,KENT
02828,Northeast,Rhode Island,GREENVILLE,RI,41.873409,71.556923,PROVIDENCE
02829,Northeast,Rhode Island,HARMONY,RI,41.887778,71.597222,PROVIDENCE
02830,Northeast,Rhode Island,HARRISVILLE,RI,41.976379,71.653405,PROVIDENCE
02831,Northeast,Rhode Island,HOPE,RI,41.751603,71.561225,PROVIDENCE
02832,Northeast,Rhode Island,HOPE VALLEY,RI,41.506974,71.734862,WASHINGTON
02833,Northeast,Rhode Island,HOPKINTON,RI,41.461111,71.778056,WASHINGTON
02835,Northeast,Rhode Island,JAMESTOWN,RI,41.516405,71.376108,NEWPORT
02836,Northeast,Rhode Island,KENYON,RI,41.477694,71.683992,WASHINGTON
02837,Northeast,Rhode Island,LITTLE COMPTON,RI,41.52204,71.161215,NEWPORT
02838,Northeast,Rhode Island,MANVILLE,RI,41.96888,71.474113,PROVIDENCE
02839,Northeast,Rhode Island,MAPLEVILLE,RI,41.948056,71.649167,PROVIDENCE
02840,Northeast,Rhode Island,NEWPORT,RI,41.504502,71.30348,NEWPORT
02841,Northeast,Rhode Island,NEWPORT,RI,41.49,71.313333,NEWPORT
02842,Northeast,Rhode Island,MIDDLETOWN,RI,41.545556,71.291944,NEWPORT
02852,Northeast,Rhode Island,NORTH KINGSTOWN,RI,41.589426,71.462494,WASHINGTON
02854,Northeast,Rhode Island,NORTH KINGSTOWN,RI,41.55,71.466667,WASHINGTON
02857,Northeast,Rhode Island,NORTH SCITUATE,RI,41.8439,71.624187,PROVIDENCE
02858,Northeast,Rhode Island,OAKLAND,RI,41.963637,71.642925,PROVIDENCE
02859,Northeast,Rhode Island,PASCOAG,RI,41.962728,71.709866,PROVIDENCE
02860,Northeast,Rhode Island,PAWTUCKET,RI,41.872873,71.390713,PROVIDENCE
02861,Northeast,Rhode Island,PAWTUCKET,RI,41.881384,71.356001,PROVIDENCE
02862,Northeast,Rhode Island,PAWTUCKET,RI,41.878611,71.383056,PROVIDENCE
02863,Northeast,Rhode Island,CENTRAL FALLS,RI,41.888263,71.394527,PROVIDENCE
02864,Northeast,Rhode Island,CUMBERLAND,RI,41.948352,71.415419,PROVIDENCE
02865,Northeast,Rhode Island,LINCOLN,RI,41.908906,71.434777,PROVIDENCE
02871,Northeast,Rhode Island,PORTSMOUTH,RI,41.594397,71.252018,NEWPORT
02872,Northeast,Rhode Island,PRUDENCE ISLAND,RI,41.613606,71.311827,BRISTOL
02873,Northeast,Rhode Island,ROCKVILLE,RI,41.519722,71.761667,WASHINGTON
02874,Northeast,Rhode Island,SAUNDERSTOWN,RI,41.510528,71.442693,WASHINGTON
02875,Northeast,Rhode Island,SHANNOCK,RI,41.448333,71.637222,WASHINGTON
02876,Northeast,Rhode Island,SLATERSVILLE,RI,42.001478,71.5682,PROVIDENCE
02877,Northeast,Rhode Island,SLOCUM,RI,41.521237,71.537169,WASHINGTON
02878,Northeast,Rhode Island,TIVERTON,RI,41.633839,71.180823,NEWPORT
02879,Northeast,Rhode Island,WAKEFIELD,RI,41.430195,71.525138,WASHINGTON
02880,Northeast,Rhode Island,WAKEFIELD,RI,41.437222,71.501944,WASHINGTON
02881,Northeast,Rhode Island,KINGSTON,RI,41.480295,71.529239,WASHINGTON
02882,Northeast,Rhode Island,NARRAGANSETT,RI,41.435313,71.46164,WASHINGTON
02883,Northeast,Rhode Island,PEACE DALE,RI,41.45157,71.500057,WASHINGTON
02885,Northeast,Rhode Island,WARREN,RI,41.725618,71.270165,BRISTOL
02886,Northeast,Rhode Island,WARWICK,RI,41.702601,71.447591,KENT
02887,Northeast,Rhode Island,WARWICK,RI,41.691944,71.379167,KENT
02888,Northeast,Rhode Island,WARWICK,RI,41.74936,71.40836,KENT
02889,Northeast,Rhode Island,WARWICK,RI,41.714069,71.390146,KENT
02891,Northeast,Rhode Island,WESTERLY,RI,41.369128,71.812643,WASHINGTON
02892,Northeast,Rhode Island,WEST KINGSTON,RI,41.506716,71.599076,WASHINGTON
02893,Northeast,Rhode Island,WEST WARWICK,RI,41.700433,71.518349,KENT
02894,Northeast,Rhode Island,WOOD RIVER JUNCTION,RI,41.453771,71.709512,WASHINGTON
02895,Northeast,Rhode Island,WOONSOCKET,RI,41.99948,71.513683,PROVIDENCE
02896,Northeast,Rhode Island,NORTH SMITHFIELD,RI,41.966667,71.55,PROVIDENCE
02898,Northeast,Rhode Island,WYOMING,RI,41.523362,71.683973,WASHINGTON
02901,Northeast,Rhode Island,PROVIDENCE,RI,41.8255,71.4114,PROVIDENCE
02902,Northeast,Rhode Island,PROVIDENCE,RI,41.8255,71.4114,PROVIDENCE
02903,Northeast,Rhode Island,PROVIDENCE,RI,41.820002,71.415801,PROVIDENCE
02904,Northeast,Rhode Island,PROVIDENCE,RI,41.860461,71.438102,PROVIDENCE
02905,Northeast,Rhode Island,PROVIDENCE,RI,41.786568,71.403146,PROVIDENCE
02906,Northeast,Rhode Island,PROVIDENCE,RI,41.835104,71.397065,PROVIDENCE
02907,Northeast,Rhode Island,PROVIDENCE,RI,41.800842,71.424039,PROVIDENCE
02908,Northeast,Rhode Island,PROVIDENCE,RI,41.838294,71.437684,PROVIDENCE
02909,Northeast,Rhode Island,PROVIDENCE,RI,41.816777,71.448165,PROVIDENCE
02910,Northeast,Rhode Island,CRANSTON,RI,41.776572,71.438331,PROVIDENCE
02911,Northeast,Rhode Island,NORTH PROVIDENCE,RI,41.853412,71.474058,PROVIDENCE
02912,Northeast,Rhode Island,PROVIDENCE,RI,41.825833,71.400833,PROVIDENCE
02914,Northeast,Rhode Island,EAST PROVIDENCE,RI,41.813777,71.368785,PROVIDENCE
02915,Northeast,Rhode Island,RIVERSIDE,RI,41.772313,71.354244,PROVIDENCE
02916,Northeast,Rhode Island,RUMFORD,RI,41.842472,71.355938,PROVIDENCE
02917,Northeast,Rhode Island,SMITHFIELD,RI,41.896382,71.520666,PROVIDENCE
02918,Northeast,Rhode Island,PROVIDENCE,RI,41.8454,71.4398,PROVIDENCE
02919,Northeast,Rhode Island,JOHNSTON,RI,41.826431,71.497646,PROVIDENCE
02920,Northeast,Rhode Island,CRANSTON,RI,41.77157,71.465889,PROVIDENCE
02921,Northeast,Rhode Island,CRANSTON,RI,41.761357,71.506102,PROVIDENCE
02940,Northeast,Rhode Island,PROVIDENCE,RI,41.8238,71.4133,PROVIDENCE
03031,Northeast,New Hampshire,AMHERST,NH,42.856944,71.607536,HILLSBOROUGH
03032,Northeast,New Hampshire,AUBURN,NH,42.992529,71.344892,ROCKINGHAM
03033,Northeast,New Hampshire,BROOKLINE,NH,42.738442,71.666254,HILLSBOROUGH
03034,Northeast,New Hampshire,CANDIA,NH,43.058514,71.304857,ROCKINGHAM
03036,Northeast,New Hampshire,CHESTER,NH,42.967756,71.244962,ROCKINGHAM
03037,Northeast,New Hampshire,DEERFIELD,NH,43.137756,71.251264,ROCKINGHAM
03038,Northeast,New Hampshire,DERRY,NH,42.887404,71.301971,ROCKINGHAM
03040,Northeast,New Hampshire,EAST CANDIA,NH,43.048056,71.249167,ROCKINGHAM
03041,Northeast,New Hampshire,EAST DERRY,NH,42.894444,71.291667,ROCKINGHAM
03042,Northeast,New Hampshire,EPPING,NH,43.041052,71.076367,ROCKINGHAM
03043,Northeast,New Hampshire,FRANCESTOWN,NH,42.991952,71.81131,HILLSBOROUGH
03044,Northeast,New Hampshire,FREMONT,NH,42.984016,71.121836,ROCKINGHAM
03045,Northeast,New Hampshire,GOFFSTOWN,NH,43.018224,71.56264,HILLSBOROUGH
03046,Northeast,New Hampshire,DUNBARTON,NH,43.109444,71.599167,MERRIMACK
03047,Northeast,New Hampshire,GREENFIELD,NH,42.949277,71.872755,HILLSBOROUGH
03048,Northeast,New Hampshire,GREENVILLE,NH,42.7489,71.784487,HILLSBOROUGH
03049,Northeast,New Hampshire,HOLLIS,NH,42.748513,71.577206,HILLSBOROUGH
03051,Northeast,New Hampshire,HUDSON,NH,42.769038,71.412144,HILLSBOROUGH
03052,Northeast,New Hampshire,LITCHFIELD,NH,42.844167,71.480278,HILLSBOROUGH
03053,Northeast,New Hampshire,LONDONDERRY,NH,42.865555,71.37719,ROCKINGHAM
03054,Northeast,New Hampshire,MERRIMACK,NH,42.866689,71.51278,HILLSBOROUGH
03055,Northeast,New Hampshire,MILFORD,NH,42.828497,71.660569,HILLSBOROUGH
03057,Northeast,New Hampshire,MONT VERNON,NH,42.897597,71.676243,HILLSBOROUGH
03060,Northeast,New Hampshire,NASHUA,NH,42.756395,71.466684,HILLSBOROUGH
03061,Northeast,New Hampshire,NASHUA,NH,42.7592,71.4632,HILLSBOROUGH
03062,Northeast,New Hampshire,NASHUA,NH,42.723472,71.489282,HILLSBOROUGH
03063,Northeast,New Hampshire,NASHUA,NH,42.771686,71.513156,HILLSBOROUGH
03064,Northeast,New Hampshire,NASHUA,NH,42.7749,71.4753,HILLSBOROUGH
03070,Northeast,New Hampshire,NEW BOSTON,NH,42.97217,71.686402,HILLSBOROUGH
03071,Northeast,New Hampshire,NEW IPSWICH,NH,42.751142,71.870318,HILLSBOROUGH
03073,Northeast,New Hampshire,NORTH SALEM,NH,42.836944,71.221111,ROCKINGHAM
03076,Northeast,New Hampshire,PELHAM,NH,42.72881,71.304551,HILLSBOROUGH
03077,Northeast,New Hampshire,RAYMOND,NH,43.032512,71.191159,ROCKINGHAM
03079,Northeast,New Hampshire,SALEM,NH,42.78465,71.21761,ROCKINGHAM
03082,Northeast,New Hampshire,LYNDEBOROUGH,NH,42.895449,71.774373,HILLSBOROUGH
03084,Northeast,New Hampshire,TEMPLE,NH,42.820035,71.852347,HILLSBOROUGH
03086,Northeast,New Hampshire,WILTON,NH,42.836761,71.754066,HILLSBOROUGH
03087,Northeast,New Hampshire,WINDHAM,NH,42.805106,71.306735,ROCKINGHAM
03101,Northeast,New Hampshire,MANCHESTER,NH,42.992858,71.463255,HILLSBOROUGH
03102,Northeast,New Hampshire,MANCHESTER,NH,42.99442,71.488433,HILLSBOROUGH
03103,Northeast,New Hampshire,MANCHESTER,NH,42.965563,71.449325,HILLSBOROUGH
03104,Northeast,New Hampshire,MANCHESTER,NH,43.007307,71.448233,HILLSBOROUGH
03105,Northeast,New Hampshire,MANCHESTER,NH,42.9925,71.4635,HILLSBOROUGH
03106,Northeast,New Hampshire,HOOKSETT,NH,43.061708,71.444446,MERRIMACK
03107,Northeast,New Hampshire,MANCHESTER,NH,42.949,71.4406,HILLSBOROUGH
03108,Northeast,New Hampshire,MANCHESTER,NH,42.949,71.4406,HILLSBOROUGH
03109,Northeast,New Hampshire,MANCHESTER,NH,42.971349,71.413474,HILLSBOROUGH
03110,Northeast,New Hampshire,BEDFORD,NH,42.940307,71.52127,HILLSBOROUGH
03111,Northeast,New Hampshire,MANCHESTER,NH,42.949,71.4406,HILLSBOROUGH
03215,Northeast,New Hampshire,WATERVILLE VALLEY,NH,43.95,71.5,GRAFTON
03216,Northeast,New Hampshire,ANDOVER,NH,43.428668,71.782952,MERRIMACK
03217,Northeast,New Hampshire,ASHLAND,NH,43.703428,71.612085,GRAFTON
03218,Northeast,New Hampshire,BARNSTEAD,NH,43.36513,71.286946,BELKNAP
03220,Northeast,New Hampshire,BELMONT,NH,43.451189,71.488991,BELKNAP
03221,Northeast,New Hampshire,BRADFORD,NH,43.294343,71.985048,MERRIMACK
03222,Northeast,New Hampshire,BRISTOL,NH,43.611994,71.750664,GRAFTON
03223,Northeast,New Hampshire,CAMPTON,NH,43.888507,71.636142,GRAFTON
03224,Northeast,New Hampshire,CANTERBURY,NH,43.357041,71.557008,MERRIMACK
03225,Northeast,New Hampshire,CENTER BARNSTEAD,NH,43.356563,71.24244,BELKNAP
03226,Northeast,New Hampshire,CENTER HARBOR,NH,43.710688,71.47973,BELKNAP
03227,Northeast,New Hampshire,CENTER SANDWICH,NH,43.816169,71.450614,CARROLL
03229,Northeast,New Hampshire,CONTOOCOOK,NH,43.218898,71.696299,MERRIMACK
03230,Northeast,New Hampshire,DANBURY,NH,43.5115,71.869074,MERRIMACK
03231,Northeast,New Hampshire,EAST ANDOVER,NH,43.47766,71.759606,MERRIMACK
03233,Northeast,New Hampshire,ELKINS,NH,43.420833,71.937778,MERRIMACK
03234,Northeast,New Hampshire,EPSOM,NH,43.217398,71.354576,MERRIMACK
03235,Northeast,New Hampshire,FRANKLIN,NH,43.442569,71.649122,MERRIMACK
03237,Northeast,New Hampshire,GILMANTON,NH,43.417476,71.412063,BELKNAP
03238,Northeast,New Hampshire,GLENCLIFF,NH,43.982778,71.893889,GRAFTON
03240,Northeast,New Hampshire,GRAFTON,NH,43.572743,71.963389,GRAFTON
03241,Northeast,New Hampshire,HEBRON,NH,43.718571,71.82696,GRAFTON
03242,Northeast,New Hampshire,HENNIKER,NH,43.179091,71.815921,MERRIMACK
03243,Northeast,New Hampshire,HILL,NH,43.527422,71.729168,MERRIMACK
03244,Northeast,New Hampshire,HILLSBOROUGH,NH,43.120709,71.902818,HILLSBOROUGH
03245,Northeast,New Hampshire,HOLDERNESS,NH,43.731944,71.588889,GRAFTON
03246,Northeast,New Hampshire,LACONIA,NH,43.538713,71.452907,BELKNAP
03247,Northeast,New Hampshire,LACONIA,NH,43.526667,71.47,BELKNAP
03249,Northeast,New Hampshire,GILFORD,NH,43.5475,71.407222,BELKNAP
03251,Northeast,New Hampshire,LINCOLN,NH,44.058159,71.672707,GRAFTON
03252,Northeast,New Hampshire,LOCHMERE,NH,43.471111,71.530556,BELKNAP
03253,Northeast,New Hampshire,MEREDITH,NH,43.650208,71.511327,BELKNAP
03254,Northeast,New Hampshire,MOULTONBOROUGH,NH,43.728133,71.392245,CARROLL
03255,Northeast,New Hampshire,NEWBURY,NH,43.340556,72.071389,MERRIMACK
03256,Northeast,New Hampshire,NEW HAMPTON,NH,43.618393,71.643513,BELKNAP
03257,Northeast,New Hampshire,NEW LONDON,NH,43.414501,71.985674,MERRIMACK
03258,Northeast,New Hampshire,CHICHESTER,NH,43.249167,71.400278,MERRIMACK
03259,Northeast,New Hampshire,NORTH SANDWICH,NH,43.845182,71.385025,CARROLL
03260,Northeast,New Hampshire,NORTH SUTTON,NH,43.363889,71.94,MERRIMACK
03261,Northeast,New Hampshire,NORTHWOOD,NH,43.206965,71.200423,ROCKINGHAM
03262,Northeast,New Hampshire,NORTH WOODSTOCK,NH,44.019831,71.697684,GRAFTON
03263,Northeast,New Hampshire,PITTSFIELD,NH,43.287384,71.33303,MERRIMACK
03264,Northeast,New Hampshire,PLYMOUTH,NH,43.763524,71.684714,GRAFTON
03266,Northeast,New Hampshire,RUMNEY,NH,43.804389,71.848019,GRAFTON
03268,Northeast,New Hampshire,SALISBURY,NH,43.406652,71.704468,MERRIMACK
03269,Northeast,New Hampshire,SANBORNTON,NH,43.549552,71.600348,BELKNAP
03272,Northeast,New Hampshire,SOUTH NEWBURY,NH,43.295556,71.997222,MERRIMACK
03273,Northeast,New Hampshire,SOUTH SUTTON,NH,43.32,71.934722,MERRIMACK
03274,Northeast,New Hampshire,STINSON LAKE,NH,43.861111,71.808889,GRAFTON
03275,Northeast,New Hampshire,SUNCOOK,NH,43.147554,71.439663,MERRIMACK
03276,Northeast,New Hampshire,TILTON,NH,43.46033,71.577413,BELKNAP
03278,Northeast,New Hampshire,WARNER,NH,43.303512,71.835349,MERRIMACK
03279,Northeast,New Hampshire,WARREN,NH,43.944667,71.89013,GRAFTON
03280,Northeast,New Hampshire,WASHINGTON,NH,43.174705,72.082407,SULLIVAN
03281,Northeast,New Hampshire,WEARE,NH,43.071422,71.70376,HILLSBOROUGH
03282,Northeast,New Hampshire,WENTWORTH,NH,43.868456,71.909651,GRAFTON
03284,Northeast,New Hampshire,SPRINGFIELD,NH,43.491615,72.057855,SULLIVAN
03287,Northeast,New Hampshire,WILMOT,NH,43.432177,71.900983,MERRIMACK
03289,Northeast,New Hampshire,WINNISQUAM,NH,43.501389,71.5125,BELKNAP
03290,Northeast,New Hampshire,NOTTINGHAM,NH,43.119632,71.110983,ROCKINGHAM
03291,Northeast,New Hampshire,WEST NOTTINGHAM,NH,43.133971,71.111006,ROCKINGHAM
03293,Northeast,New Hampshire,WOODSTOCK,NH,43.9775,71.685556,GRAFTON
03298,Northeast,New Hampshire,TILTON,NH,43.6345,71.5331,BELKNAP
03299,Northeast,New Hampshire,TILTON,NH,43.6345,71.5331,BELKNAP
03301,Northeast,New Hampshire,CONCORD,NH,43.218525,71.527734,MERRIMACK
03302,Northeast,New Hampshire,CONCORD,NH,43.3046,71.6771,MERRIMACK
03303,Northeast,New Hampshire,CONCORD,NH,43.285285,71.612723,MERRIMACK
03304,Northeast,New Hampshire,BOW,NH,43.138788,71.544814,MERRIMACK
03305,Northeast,New Hampshire,CONCORD,NH,43.2651,71.4989,MERRIMACK
03307,Northeast,New Hampshire,LOUDON,NH,43.285556,71.467778,MERRIMACK
03431,Northeast,New Hampshire,KEENE,NH,42.943127,72.28954,CHESHIRE
03435,Northeast,New Hampshire,KEENE,NH,42.933611,72.278611,CHESHIRE
03440,Northeast,New Hampshire,ANTRIM,NH,43.059547,71.938698,HILLSBOROUGH
03441,Northeast,New Hampshire,ASHUELOT,NH,42.785057,72.434899,CHESHIRE
03442,Northeast,New Hampshire,BENNINGTON,NH,43.010309,71.91534,HILLSBOROUGH
03443,Northeast,New Hampshire,CHESTERFIELD,NH,42.900785,72.487219,CHESHIRE
03444,Northeast,New Hampshire,DUBLIN,NH,42.897198,72.050538,CHESHIRE
03445,Northeast,New Hampshire,SULLIVAN,NH,42.994005,72.191778,CHESHIRE
03446,Northeast,New Hampshire,SWANZEY,NH,42.884137,72.249298,CHESHIRE
03447,Northeast,New Hampshire,FITZWILLIAM,NH,42.7611,72.145014,CHESHIRE
03448,Northeast,New Hampshire,GILSUM,NH,43.043105,72.263272,CHESHIRE
03449,Northeast,New Hampshire,HANCOCK,NH,42.976817,71.981858,HILLSBOROUGH
03450,Northeast,New Hampshire,HARRISVILLE,NH,42.939874,72.097243,CHESHIRE
03451,Northeast,New Hampshire,HINSDALE,NH,42.802714,72.501474,CHESHIRE
03452,Northeast,New Hampshire,JAFFREY,NH,42.81779,72.027514,CHESHIRE
03455,Northeast,New Hampshire,MARLBOROUGH,NH,42.898804,72.201292,CHESHIRE
03456,Northeast,New Hampshire,MARLOW,NH,43.132585,72.210879,CHESHIRE
03457,Northeast,New Hampshire,NELSON,NH,42.998646,72.133702,CHESHIRE
03458,Northeast,New Hampshire,PETERBOROUGH,NH,42.88559,71.946964,HILLSBOROUGH
03461,Northeast,New Hampshire,RINDGE,NH,42.754391,72.019038,CHESHIRE
03462,Northeast,New Hampshire,SPOFFORD,NH,42.911973,72.410277,CHESHIRE
03464,Northeast,New Hampshire,STODDARD,NH,43.073944,72.108811,CHESHIRE
03465,Northeast,New Hampshire,TROY,NH,42.82697,72.184753,CHESHIRE
03466,Northeast,New Hampshire,WEST CHESTERFIELD,NH,42.873152,72.511216,CHESHIRE
03467,Northeast,New Hampshire,WESTMORELAND,NH,42.968999,72.435784,CHESHIRE
03468,Northeast,New Hampshire,WEST PETERBOROUGH,NH,42.887222,71.985833,HILLSBOROUGH
03469,Northeast,New Hampshire,WEST SWANZEY,NH,42.870313,72.297688,CHESHIRE
03470,Northeast,New Hampshire,WINCHESTER,NH,42.773922,72.363672,CHESHIRE
03561,Northeast,New Hampshire,LITTLETON,NH,44.311187,71.776816,GRAFTON
03570,Northeast,New Hampshire,BERLIN,NH,44.48107,71.189236,COOS
03574,Northeast,New Hampshire,BETHLEHEM,NH,44.280846,71.682929,GRAFTON
03575,Northeast,New Hampshire,BRETTON WOODS,NH,44.258056,71.441667,COOS
03576,Northeast,New Hampshire,COLEBROOK,NH,44.907776,71.479341,COOS
03579,Northeast,New Hampshire,ERROL,NH,44.800273,71.143612,COOS
03580,Northeast,New Hampshire,FRANCONIA,NH,44.205273,71.751822,GRAFTON
03581,Northeast,New Hampshire,GORHAM,NH,44.399601,71.179983,COOS
03582,Northeast,New Hampshire,NORTHUMBERLAND,NH,44.598367,71.506421,COOS
03583,Northeast,New Hampshire,JEFFERSON,NH,44.399907,71.451834,COOS
03584,Northeast,New Hampshire,LANCASTER,NH,44.492074,71.559115,COOS
03585,Northeast,New Hampshire,LISBON,NH,44.214837,71.896565,GRAFTON
03586,Northeast,New Hampshire,SUGAR HILL,NH,43.606667,71.736944,GRAFTON
03588,Northeast,New Hampshire,MILAN,NH,44.586968,71.181031,COOS
03589,Northeast,New Hampshire,MOUNT WASHINGTON,NH,44.345833,71.554722,COOS
03590,Northeast,New Hampshire,NORTH STRATFORD,NH,44.714915,71.564368,COOS
03592,Northeast,New Hampshire,PITTSBURG,NH,45.086564,71.363593,COOS
03593,Northeast,New Hampshire,RANDOLPH,NH,44.375278,71.280278,COOS
03595,Northeast,New Hampshire,TWIN MOUNTAIN,NH,44.272222,71.539444,COOS
03597,Northeast,New Hampshire,WEST STEWARTSTOWN,NH,44.995278,71.531667,COOS
03598,Northeast,New Hampshire,WHITEFIELD,NH,44.36811,71.603453,COOS
03601,Northeast,New Hampshire,ACWORTH,NH,43.217778,72.2925,SULLIVAN
03602,Northeast,New Hampshire,ALSTEAD,NH,43.126484,72.328052,CHESHIRE
03603,Northeast,New Hampshire,CHARLESTOWN,NH,43.257339,72.40638,SULLIVAN
03604,Northeast,New Hampshire,DREWSVILLE,NH,43.128056,72.3925,CHESHIRE
03605,Northeast,New Hampshire,LEMPSTER,NH,43.21863,72.166205,SULLIVAN
03607,Northeast,New Hampshire,SOUTH ACWORTH,NH,43.176942,72.341053,SULLIVAN
03608,Northeast,New Hampshire,WALPOLE,NH,43.076533,72.415489,CHESHIRE
03609,Northeast,New Hampshire,NORTH WALPOLE,NH,43.142759,72.448253,CHESHIRE
03740,Northeast,New Hampshire,BATH,NH,44.173419,71.956741,GRAFTON
03741,Northeast,New Hampshire,CANAAN,NH,43.660092,72.029724,GRAFTON
03743,Northeast,New Hampshire,CLAREMONT,NH,43.367942,72.342186,SULLIVAN
03745,Northeast,New Hampshire,CORNISH,NH,43.496339,72.339426,SULLIVAN
03746,Northeast,New Hampshire,CORNISH FLAT,NH,43.497222,72.28,SULLIVAN
03748,Northeast,New Hampshire,ENFIELD,NH,43.625584,72.127014,GRAFTON
03749,Northeast,New Hampshire,ENFIELD CENTER,NH,43.59,72.111389,GRAFTON
03750,Northeast,New Hampshire,ETNA,NH,43.711333,72.212479,GRAFTON
03751,Northeast,New Hampshire,GEORGES MILLS,NH,43.431667,72.067778,SULLIVAN
03752,Northeast,New Hampshire,GOSHEN,NH,43.302623,72.124117,SULLIVAN
03753,Northeast,New Hampshire,GRANTHAM,NH,43.510324,72.133437,SULLIVAN
03754,Northeast,New Hampshire,GUILD,NH,43.376667,72.138611,SULLIVAN
03755,Northeast,New Hampshire,HANOVER,NH,43.704532,72.28496,GRAFTON
03756,Northeast,New Hampshire,LEBANON,NH,43.642222,72.252222,GRAFTON
03765,Northeast,New Hampshire,HAVERHILL,NH,44.039438,72.057276,GRAFTON
03766,Northeast,New Hampshire,LEBANON,NH,43.644688,72.242818,GRAFTON
03768,Northeast,New Hampshire,LYME,NH,43.791327,72.161993,GRAFTON
03769,Northeast,New Hampshire,LYME CENTER,NH,43.799167,72.123333,GRAFTON
03770,Northeast,New Hampshire,MERIDEN,NH,43.529873,72.275644,SULLIVAN
03771,Northeast,New Hampshire,MONROE,NH,44.273358,72.025028,GRAFTON
03773,Northeast,New Hampshire,NEWPORT,NH,43.353228,72.183789,SULLIVAN
03774,Northeast,New Hampshire,NORTH HAVERHILL,NH,44.097841,72.019112,GRAFTON
03777,Northeast,New Hampshire,ORFORD,NH,43.894101,72.097846,GRAFTON
03779,Northeast,New Hampshire,PIERMONT,NH,43.990572,72.081299,GRAFTON
03780,Northeast,New Hampshire,PIKE,NH,44.025511,72.009587,GRAFTON
03781,Northeast,New Hampshire,PLAINFIELD,NH,43.551919,72.270398,SULLIVAN
03782,Northeast,New Hampshire,SUNAPEE,NH,43.386816,72.095044,SULLIVAN
03784,Northeast,New Hampshire,WEST LEBANON,NH,43.64401,72.300735,GRAFTON
03785,Northeast,New Hampshire,WOODSVILLE,NH,44.138549,71.989215,GRAFTON
03801,Northeast,New Hampshire,PORTSMOUTH,NH,43.066524,70.780412,ROCKINGHAM
03802,Northeast,New Hampshire,PORTSMOUTH,NH,43.0774,70.7563,ROCKINGHAM
03803,Northeast,New Hampshire,PORTSMOUTH,NH,43.0326,70.7961,ROCKINGHAM
03804,Northeast,New Hampshire,PORTSMOUTH,NH,43.1135,70.7369,ROCKINGHAM
03805,Northeast,New Hampshire,NEWINGTON,NH,43.236111,70.820833,STRAFFORD
03809,Northeast,New Hampshire,ALTON,NH,43.46302,71.229709,BELKNAP
03810,Northeast,New Hampshire,ALTON BAY,NH,43.484468,71.24888,BELKNAP
03811,Northeast,New Hampshire,ATKINSON,NH,42.836981,71.1603,ROCKINGHAM
03812,Northeast,New Hampshire,BARTLETT,NH,44.08656,71.2491,CARROLL
03813,Northeast,New Hampshire,CHATHAM,NH,43.98776,71.060677,CARROLL
03814,Northeast,New Hampshire,CENTER OSSIPEE,NH,43.768189,71.134882,CARROLL
03815,Northeast,New Hampshire,CENTER STRAFFORD,NH,43.262888,71.107122,STRAFFORD
03816,Northeast,New Hampshire,CENTER TUFTONBORO,NH,43.690205,71.265059,CARROLL
03817,Northeast,New Hampshire,CHOCORUA,NH,43.890851,71.240716,CARROLL
03818,Northeast,New Hampshire,CONWAY,NH,43.974161,71.15028,CARROLL
03819,Northeast,New Hampshire,DANVILLE,NH,42.923432,71.120985,ROCKINGHAM
03820,Northeast,New Hampshire,DOVER,NH,43.190006,70.884881,STRAFFORD
03821,Northeast,New Hampshire,DOVER,NH,43.1946,70.8772,STRAFFORD
03822,Northeast,New Hampshire,DOVER,NH,43.1946,70.8772,STRAFFORD
03823,Northeast,New Hampshire,MADBURY,NH,43.169167,70.924444,STRAFFORD
03824,Northeast,New Hampshire,DURHAM,NH,43.133821,70.952333,STRAFFORD
03825,Northeast,New Hampshire,BARRINGTON,NH,43.2027,71.037675,STRAFFORD
03826,Northeast,New Hampshire,EAST HAMPSTEAD,NH,42.887656,71.127978,ROCKINGHAM
03827,Northeast,New Hampshire,SOUTH HAMPTON,NH,42.911289,70.976904,ROCKINGHAM
03830,Northeast,New Hampshire,EAST WAKEFIELD,NH,43.641022,71.007712,CARROLL
03832,Northeast,New Hampshire,EATON CENTER,NH,43.909167,71.084167,CARROLL
03833,Northeast,New Hampshire,EXETER,NH,42.977169,70.964306,ROCKINGHAM
03835,Northeast,New Hampshire,FARMINGTON,NH,43.388373,71.064693,STRAFFORD
03836,Northeast,New Hampshire,FREEDOM,NH,43.817242,71.062815,CARROLL
03837,Northeast,New Hampshire,GILMANTON IRON WORKS,NH,43.425281,71.330315,BELKNAP
03838,Northeast,New Hampshire,GLEN,NH,44.101777,71.192457,CARROLL
03839,Northeast,New Hampshire,ROCHESTER,NH,43.268374,70.976642,STRAFFORD
03840,Northeast,New Hampshire,GREENLAND,NH,43.035294,70.847476,ROCKINGHAM
03841,Northeast,New Hampshire,HAMPSTEAD,NH,42.881957,71.175802,ROCKINGHAM
03842,Northeast,New Hampshire,HAMPTON,NH,42.935883,70.824336,ROCKINGHAM
03843,Northeast,New Hampshire,HAMPTON,NH,42.9375,70.839444,ROCKINGHAM
03844,Northeast,New Hampshire,HAMPTON FALLS,NH,42.926323,70.887608,ROCKINGHAM
03845,Northeast,New Hampshire,INTERVALE,NH,44.095479,71.119415,CARROLL
03846,Northeast,New Hampshire,JACKSON,NH,44.166989,71.187808,CARROLL
03847,Northeast,New Hampshire,KEARSARGE,NH,44.075278,71.118056,CARROLL
03848,Northeast,New Hampshire,KINGSTON,NH,42.913258,71.063914,ROCKINGHAM
03849,Northeast,New Hampshire,MADISON,NH,43.915206,71.125412,CARROLL
03850,Northeast,New Hampshire,MELVIN VILLAGE,NH,43.688889,71.304722,CARROLL
03851,Northeast,New Hampshire,MILTON,NH,43.409722,70.988889,STRAFFORD
03852,Northeast,New Hampshire,MILTON MILLS,NH,43.502494,70.969729,STRAFFORD
03853,Northeast,New Hampshire,MIRROR LAKE,NH,43.636552,71.272858,CARROLL
03854,Northeast,New Hampshire,NEW CASTLE,NH,43.068114,70.719922,ROCKINGHAM
03855,Northeast,New Hampshire,NEW DURHAM,NH,43.443045,71.140828,STRAFFORD
03856,Northeast,New Hampshire,NEWFIELDS,NH,43.036944,70.938889,ROCKINGHAM
03857,Northeast,New Hampshire,NEWMARKET,NH,43.072628,70.955317,ROCKINGHAM
03858,Northeast,New Hampshire,NEWTON,NH,42.867805,71.042021,ROCKINGHAM
03859,Northeast,New Hampshire,NEWTON JUNCTION,NH,42.867222,71.066389,ROCKINGHAM
03860,Northeast,New Hampshire,NORTH CONWAY,NH,44.033613,71.123811,CARROLL
03862,Northeast,New Hampshire,NORTH HAMPTON,NH,42.977625,70.826738,ROCKINGHAM
03864,Northeast,New Hampshire,OSSIPEE,NH,43.694506,71.112873,CARROLL
03865,Northeast,New Hampshire,PLAISTOW,NH,42.835551,71.093397,ROCKINGHAM
03866,Northeast,New Hampshire,ROCHESTER,NH,43.304444,70.976111,STRAFFORD
03867,Northeast,New Hampshire,ROCHESTER,NH,43.309203,71.055753,STRAFFORD
03868,Northeast,New Hampshire,ROCHESTER,NH,43.31256,70.968581,STRAFFORD
03869,Northeast,New Hampshire,ROLLINSFORD,NH,43.226936,70.833207,STRAFFORD
03870,Northeast,New Hampshire,RYE,NH,43.009468,70.765153,ROCKINGHAM
03871,Northeast,New Hampshire,RYE BEACH,NH,42.976667,70.766111,ROCKINGHAM
03872,Northeast,New Hampshire,SANBORNVILLE,NH,43.551278,71.020005,CARROLL
03873,Northeast,New Hampshire,SANDOWN,NH,42.930819,71.18606,ROCKINGHAM
03874,Northeast,New Hampshire,SEABROOK,NH,42.88536,70.86464,ROCKINGHAM
03875,Northeast,New Hampshire,SILVER LAKE,NH,43.878974,71.190501,CARROLL
03878,Northeast,New Hampshire,SOMERSWORTH,NH,43.252546,70.875589,STRAFFORD
03882,Northeast,New Hampshire,EFFINGHAM,NH,43.721216,71.002109,CARROLL
03883,Northeast,New Hampshire,SOUTH TAMWORTH,NH,43.833613,71.311654,CARROLL
03884,Northeast,New Hampshire,STRAFFORD,NH,43.250575,71.162475,STRAFFORD
03885,Northeast,New Hampshire,STRATHAM,NH,43.019432,70.899714,ROCKINGHAM
03886,Northeast,New Hampshire,TAMWORTH,NH,43.862049,71.264454,CARROLL
03887,Northeast,New Hampshire,UNION,NH,43.4382,71.020857,CARROLL
03890,Northeast,New Hampshire,WEST OSSIPEE,NH,43.835956,71.205141,CARROLL
03894,Northeast,New Hampshire,WOLFEBORO,NH,43.594996,71.190843,CARROLL
03896,Northeast,New Hampshire,WOLFEBORO FALLS,NH,43.591944,71.206111,CARROLL
03897,Northeast,New Hampshire,WONALANCET,NH,43.907222,71.351111,CARROLL
03901,Northeast,Maine,BERWICK,ME,43.28992,70.855038,YORK
03902,Northeast,Maine,CAPE NEDDICK,ME,43.213318,70.639685,YORK
03903,Northeast,Maine,ELIOT,ME,43.130943,70.782216,YORK
03904,Northeast,Maine,KITTERY,ME,43.092128,70.742876,YORK
03905,Northeast,Maine,KITTERY POINT,ME,43.097571,70.712108,YORK
03906,Northeast,Maine,NORTH BERWICK,ME,43.325401,70.721173,YORK
03907,Northeast,Maine,OGUNQUIT,ME,43.228457,70.597176,YORK
03908,Northeast,Maine,SOUTH BERWICK,ME,43.229201,70.785949,YORK
03909,Northeast,Maine,YORK,ME,43.154447,70.657826,YORK
03910,Northeast,Maine,YORK BEACH,ME,43.171389,70.609444,YORK
03911,Northeast,Maine,YORK HARBOR,ME,43.136667,70.646111,YORK
04001,Northeast,Maine,ACTON,ME,43.549405,70.930687,YORK
04002,Northeast,Maine,ALFRED,ME,43.487503,70.696087,YORK
04003,Northeast,Maine,BAILEY ISLAND,ME,43.734147,69.995175,CUMBERLAND
04004,Northeast,Maine,BAR MILLS,ME,43.613056,70.550278,YORK
04005,Northeast,Maine,BIDDEFORD,ME,43.483647,70.471928,YORK
04006,Northeast,Maine,BIDDEFORD POOL,ME,43.442722,70.352024,YORK
04007,Northeast,Maine,BIDDEFORD,ME,43.4925,70.453889,YORK
04008,Northeast,Maine,BOWDOINHAM,ME,44.036806,69.918849,SAGADAHOC
04009,Northeast,Maine,BRIDGTON,ME,44.052049,70.724081,CUMBERLAND
04010,Northeast,Maine,BROWNFIELD,ME,43.971316,70.903225,OXFORD
04011,Northeast,Maine,BRUNSWICK,ME,43.897591,69.955469,CUMBERLAND
04013,Northeast,Maine,BUSTINS ISLAND,ME,43.79602,70.042247,CUMBERLAND
04014,Northeast,Maine,CAPE PORPOISE,ME,43.3725,70.438611,YORK
04015,Northeast,Maine,CASCO,ME,43.959623,70.526013,CUMBERLAND
04016,Northeast,Maine,CENTER LOVELL,ME,44.168139,70.883618,OXFORD
04017,Northeast,Maine,CHEBEAGUE ISLAND,ME,43.735363,70.116878,CUMBERLAND
04019,Northeast,Maine,CLIFF ISLAND,ME,43.695547,70.107097,CUMBERLAND
04020,Northeast,Maine,CORNISH,ME,43.779612,70.778433,YORK
04021,Northeast,Maine,CUMBERLAND CENTER,ME,43.809818,70.2484,CUMBERLAND
04022,Northeast,Maine,DENMARK,ME,43.975499,70.792409,OXFORD
04024,Northeast,Maine,EAST BALDWIN,ME,43.864604,70.692159,CUMBERLAND
04027,Northeast,Maine,LEBANON,ME,43.410304,70.910986,YORK
04028,Northeast,Maine,EAST PARSONSFIELD,ME,43.7275,70.915556,YORK
04029,Northeast,Maine,SEBAGO,ME,43.882247,70.633865,CUMBERLAND
04030,Northeast,Maine,EAST WATERBORO,ME,43.599537,70.690626,YORK
04032,Northeast,Maine,FREEPORT,ME,43.851093,70.113854,CUMBERLAND
04033,Northeast,Maine,FREEPORT,ME,43.856944,70.103611,CUMBERLAND
04034,Northeast,Maine,FREEPORT,ME,43.856667,70.103611,CUMBERLAND
04037,Northeast,Maine,FRYEBURG,ME,44.031278,70.966841,OXFORD
04038,Northeast,Maine,GORHAM,ME,43.684329,70.467968,CUMBERLAND
04039,Northeast,Maine,GRAY,ME,43.894202,70.342939,CUMBERLAND
04040,Northeast,Maine,HARRISON,ME,44.107099,70.653855,CUMBERLAND
04041,Northeast,Maine,HIRAM,ME,43.862217,70.853076,OXFORD
04042,Northeast,Maine,HOLLIS CENTER,ME,43.594578,70.605074,YORK
04043,Northeast,Maine,KENNEBUNK,ME,43.388055,70.547802,YORK
04046,Northeast,Maine,KENNEBUNKPORT,ME,43.392288,70.472867,YORK
04047,Northeast,Maine,PARSONSFIELD,ME,43.785361,70.892717,YORK
04048,Northeast,Maine,LIMERICK,ME,43.696265,70.786556,YORK
04049,Northeast,Maine,LIMINGTON,ME,43.726031,70.675178,YORK
04050,Northeast,Maine,LONG ISLAND,ME,43.692014,70.15509,CUMBERLAND
04051,Northeast,Maine,LOVELL,ME,44.161404,70.929951,OXFORD
04054,Northeast,Maine,MOODY,ME,43.275,70.5975,YORK
04055,Northeast,Maine,NAPLES,ME,43.968121,70.598754,CUMBERLAND
04056,Northeast,Maine,NEWFIELD,ME,43.648056,70.8475,YORK
04057,Northeast,Maine,NORTH BRIDGTON,ME,44.098611,70.699167,CUMBERLAND
04061,Northeast,Maine,NORTH WATERBORO,ME,43.639976,70.729799,YORK
04062,Northeast,Maine,WINDHAM,ME,43.795771,70.414281,CUMBERLAND
04063,Northeast,Maine,OCEAN PARK,ME,43.500556,70.386667,YORK
04064,Northeast,Maine,OLD ORCHARD BEACH,ME,43.517449,70.392053,YORK
04066,Northeast,Maine,ORRS ISLAND,ME,43.77267,69.966793,CUMBERLAND
04068,Northeast,Maine,PORTER,ME,43.826216,70.924266,OXFORD
04069,Northeast,Maine,POWNAL,ME,43.890042,70.195497,CUMBERLAND
04070,Northeast,Maine,SCARBOROUGH,ME,43.578056,70.322222,CUMBERLAND
04071,Northeast,Maine,RAYMOND,ME,43.921917,70.449834,CUMBERLAND
04072,Northeast,Maine,SACO,ME,43.520946,70.454632,YORK
04073,Northeast,Maine,SANFORD,ME,43.428541,70.758479,YORK
04074,Northeast,Maine,SCARBOROUGH,ME,43.583476,70.345668,CUMBERLAND
04075,Northeast,Maine,SEBAGO LAKE,ME,43.758355,70.573454,CUMBERLAND
04076,Northeast,Maine,SHAPLEIGH,ME,43.567353,70.828619,YORK
04077,Northeast,Maine,SOUTH CASCO,ME,43.876736,70.512938,CUMBERLAND
04078,Northeast,Maine,SOUTH FREEPORT,ME,43.819722,70.11,CUMBERLAND
04079,Northeast,Maine,HARPSWELL,ME,43.781932,69.993709,CUMBERLAND
04082,Northeast,Maine,SOUTH WINDHAM,ME,43.815,70.4275,CUMBERLAND
04083,Northeast,Maine,SPRINGVALE,ME,43.471499,70.806445,YORK
04084,Northeast,Maine,STANDISH,ME,43.814211,70.480657,CUMBERLAND
04085,Northeast,Maine,STEEP FALLS,ME,43.757137,70.645627,CUMBERLAND
04086,Northeast,Maine,TOPSHAM,ME,43.941286,69.964479,SAGADAHOC
04087,Northeast,Maine,WATERBORO,ME,43.566097,70.743115,YORK
04088,Northeast,Maine,WATERFORD,ME,44.181389,70.717778,OXFORD
04090,Northeast,Maine,WELLS,ME,43.314352,70.596883,YORK
04091,Northeast,Maine,WEST BALDWIN,ME,43.829873,70.749015,CUMBERLAND
04092,Northeast,Maine,WESTBROOK,ME,43.684268,70.358033,CUMBERLAND
04093,Northeast,Maine,BUXTON,ME,43.661586,70.601546,YORK
04094,Northeast,Maine,WEST KENNEBUNK,ME,43.408611,70.581944,YORK
04095,Northeast,Maine,WEST NEWFIELD,ME,43.643417,70.913476,YORK
04096,Northeast,Maine,YARMOUTH,ME,43.800933,70.174958,CUMBERLAND
04097,Northeast,Maine,NORTH YARMOUTH,ME,43.829722,70.276944,CUMBERLAND
04098,Northeast,Maine,WESTBROOK,ME,43.676944,70.371667,CUMBERLAND
04101,Northeast,Maine,PORTLAND,ME,43.660564,70.258864,CUMBERLAND
04102,Northeast,Maine,PORTLAND,ME,43.660168,70.28981,CUMBERLAND
04103,Northeast,Maine,PORTLAND,ME,43.687568,70.2876,CUMBERLAND
04104,Northeast,Maine,PORTLAND,ME,43.6582,70.2671,CUMBERLAND
04105,Northeast,Maine,FALMOUTH,ME,43.734038,70.26253,CUMBERLAND
04106,Northeast,Maine,SOUTH PORTLAND,ME,43.631847,70.270878,CUMBERLAND
04107,Northeast,Maine,CAPE ELIZABETH,ME,43.601735,70.230099,CUMBERLAND
04108,Northeast,Maine,PEAKS ISLAND,ME,43.658921,70.194017,CUMBERLAND
04109,Northeast,Maine,PORTLAND,ME,43.674971,70.202201,CUMBERLAND
04110,Northeast,Maine,CUMBERLAND FORESIDE,ME,43.774485,70.188333,CUMBERLAND
04112,Northeast,Maine,PORTLAND,ME,43.6613,70.2558,CUMBERLAND
04116,Northeast,Maine,SOUTH PORTLAND,ME,43.6367,70.2508,CUMBERLAND
04122,Northeast,Maine,PORTLAND,ME,43.6582,70.2671,CUMBERLAND
04123,Northeast,Maine,PORTLAND,ME,43.6582,70.2671,CUMBERLAND
04124,Northeast,Maine,PORTLAND,ME,43.6582,70.2671,CUMBERLAND
04210,Northeast,Maine,AUBURN,ME,44.094785,70.238978,ANDROSCOGGIN
04211,Northeast,Maine,AUBURN,ME,44.0763,70.2566,ANDROSCOGGIN
04212,Northeast,Maine,AUBURN,ME,44.0986,70.2266,ANDROSCOGGIN
04216,Northeast,Maine,ANDOVER,ME,44.663703,70.79666,OXFORD
04217,Northeast,Maine,BETHEL,ME,44.416176,70.803685,OXFORD
04219,Northeast,Maine,BRYANT POND,ME,44.395714,70.643468,OXFORD
04220,Northeast,Maine,BUCKFIELD,ME,44.287676,70.368293,OXFORD
04221,Northeast,Maine,CANTON,ME,44.418894,70.321719,OXFORD
04222,Northeast,Maine,DURHAM,ME,43.928333,70.123611,ANDROSCOGGIN
04223,Northeast,Maine,DANVILLE,ME,44.036528,70.272055,ANDROSCOGGIN
04224,Northeast,Maine,DIXFIELD,ME,44.554799,70.424099,OXFORD
04225,Northeast,Maine,DRYDEN,ME,44.600218,70.223962,FRANKLIN
04226,Northeast,Maine,EAST ANDOVER,ME,44.603011,70.729555,OXFORD
04227,Northeast,Maine,EAST DIXFIELD,ME,44.573333,70.304167,FRANKLIN
04228,Northeast,Maine,EAST LIVERMORE,ME,44.399402,70.130334,ANDROSCOGGIN
04230,Northeast,Maine,EAST POLAND,ME,44.070556,70.328611,ANDROSCOGGIN
04231,Northeast,Maine,STONEHAM,ME,44.238201,70.852936,OXFORD
04234,Northeast,Maine,EAST WILTON,ME,44.615833,70.193333,FRANKLIN
04236,Northeast,Maine,GREENE,ME,44.189059,70.145532,ANDROSCOGGIN
04237,Northeast,Maine,HANOVER,ME,44.495875,70.716735,OXFORD
04238,Northeast,Maine,HEBRON,ME,44.202136,70.375369,OXFORD
04239,Northeast,Maine,JAY,ME,44.515994,70.209883,FRANKLIN
04240,Northeast,Maine,LEWISTON,ME,44.098538,70.191619,ANDROSCOGGIN
04241,Northeast,Maine,LEWISTON,ME,44.0965,70.2162,ANDROSCOGGIN
04243,Northeast,Maine,LEWISTON,ME,44.0965,70.2162,ANDROSCOGGIN
04250,Northeast,Maine,LISBON,ME,44.025511,70.113933,ANDROSCOGGIN
04252,Northeast,Maine,LISBON FALLS,ME,43.997759,70.073375,ANDROSCOGGIN
04253,Northeast,Maine,LIVERMORE,ME,44.383889,70.249722,ANDROSCOGGIN
04254,Northeast,Maine,LIVERMORE FALLS,ME,44.445756,70.193614,ANDROSCOGGIN
04255,Northeast,Maine,GREENWOOD,ME,44.318333,70.651389,OXFORD
04256,Northeast,Maine,MECHANIC FALLS,ME,44.099957,70.368206,ANDROSCOGGIN
04257,Northeast,Maine,MEXICO,ME,44.562776,70.535797,OXFORD
04258,Northeast,Maine,MINOT,ME,44.085556,70.320556,ANDROSCOGGIN
04259,Northeast,Maine,MONMOUTH,ME,44.22083,70.02627,KENNEBEC
04260,Northeast,Maine,NEW GLOUCESTER,ME,43.960835,70.297381,CUMBERLAND
04261,Northeast,Maine,NEWRY,ME,44.407937,70.792611,OXFORD
04262,Northeast,Maine,NORTH JAY,ME,44.547222,70.238611,FRANKLIN
04263,Northeast,Maine,LEEDS,ME,44.28343,70.125277,ANDROSCOGGIN
04265,Northeast,Maine,NORTH MONMOUTH,ME,44.275328,70.036686,KENNEBEC
04266,Northeast,Maine,NORTH TURNER,ME,44.335031,70.256147,ANDROSCOGGIN
04267,Northeast,Maine,NORTH WATERFORD,ME,44.206511,70.717393,OXFORD
04268,Northeast,Maine,NORWAY,ME,44.212654,70.560135,OXFORD
04270,Northeast,Maine,OXFORD,ME,44.11183,70.509799,OXFORD
04271,Northeast,Maine,PARIS,ME,44.259722,70.501111,OXFORD
04274,Northeast,Maine,POLAND,ME,44.021162,70.379664,ANDROSCOGGIN
04275,Northeast,Maine,ROXBURY,ME,44.65657,70.609188,OXFORD
04276,Northeast,Maine,RUMFORD,ME,44.543446,70.564475,OXFORD
04278,Northeast,Maine,RUMFORD CENTER,ME,44.592334,70.700058,
04280,Northeast,Maine,SABATTUS,ME,44.113269,70.074792,ANDROSCOGGIN
04281,Northeast,Maine,SOUTH PARIS,ME,44.216674,70.501179,OXFORD
04282,Northeast,Maine,TURNER,ME,44.255669,70.249444,ANDROSCOGGIN
04284,Northeast,Maine,WAYNE,ME,44.349283,70.0712,KENNEBEC
04285,Northeast,Maine,WELD,ME,44.701624,70.4249,FRANKLIN
04286,Northeast,Maine,WEST BETHEL,ME,44.401944,70.861667,OXFORD
04287,Northeast,Maine,BOWDOIN,ME,44.045833,70.025833,SAGADAHOC
04288,Northeast,Maine,WEST MINOT,ME,44.171111,70.366389,ANDROSCOGGIN
04289,Northeast,Maine,WEST PARIS,ME,44.32527,70.573167,OXFORD
04290,Northeast,Maine,PERU,ME,44.494408,70.443459,OXFORD
04291,Northeast,Maine,WEST POLAND,ME,44.047167,70.450166,ANDROSCOGGIN
04292,Northeast,Maine,SUMNER,ME,44.372804,70.432314,OXFORD
04294,Northeast,Maine,WILTON,ME,44.59107,70.296064,FRANKLIN
04330,Northeast,Maine,AUGUSTA,ME,44.323228,69.766548,KENNEBEC
04332,Northeast,Maine,AUGUSTA,ME,44.3111,69.7843,KENNEBEC
04333,Northeast,Maine,AUGUSTA,ME,44.3071,69.7836,KENNEBEC
04336,Northeast,Maine,AUGUSTA,ME,44.3111,69.7843,KENNEBEC
04338,Northeast,Maine,AUGUSTA,ME,44.3111,69.7843,KENNEBEC
04341,Northeast,Maine,COOPERS MILLS,ME,44.258823,69.507672,LINCOLN
04342,Northeast,Maine,DRESDEN,ME,44.078507,69.745726,LINCOLN
04343,Northeast,Maine,EAST WINTHROP,ME,44.321667,69.896944,KENNEBEC
04344,Northeast,Maine,FARMINGDALE,ME,44.25233,69.791313,KENNEBEC
04345,Northeast,Maine,GARDINER,ME,44.207029,69.785774,KENNEBEC
04346,Northeast,Maine,RANDOLPH,ME,44.228704,69.774918,KENNEBEC
04347,Northeast,Maine,HALLOWELL,ME,44.286414,69.805738,KENNEBEC
04348,Northeast,Maine,JEFFERSON,ME,44.189419,69.483895,LINCOLN
04349,Northeast,Maine,KENTS HILL,ME,44.438259,70.074822,KENNEBEC
04350,Northeast,Maine,LITCHFIELD,ME,44.163437,69.958071,KENNEBEC
04351,Northeast,Maine,MANCHESTER,ME,44.308375,69.884657,KENNEBEC
04352,Northeast,Maine,MOUNT VERNON,ME,44.499342,69.990336,KENNEBEC
